"id","latitude","longitude","city","state","station"
"USW00021504",19.7192,-155.0531,"Hilo","HI","HILO INTL AP"
"USW00094240",47.9375,-124.555,"Forks","WA","QUILLAYUTE STATE AP"
"USS0021B01S",47.75,-121.09,"Skykomish","WA","Stevens Pass"
"USS0022E07S",44.39,-122.17,"Foster","OR","Jump Off Joe"
"USC00455840",48.6758,-121.2419,"Rockport","WA","NEWHALEM"
"USC00084461",26.86,-80.0553,"North Palm Beach","FL","JUNO BEACH"
"USC00352973",44.0039,-124.0947,"Florence","OR","FLORENCE #2"
"USC00353705",45.3128,-123.35,"Yamhill","OR","HASKINS DAM"
"USW00094224",46.1569,-123.8825,"Warrenton","OR","ASTORIA RGNL AP"
"USW00025501",57.7511,-152.4856,"Kodiak","AK","KODIAK AP"
"USC00451679",48.5397,-121.7422,"Concrete","WA","CONCRETE PPL FISH STN"
"USC00355221",44.6125,-121.9486,"Idanha","OR","MARION FORKS FISH HATCHERY"
"USC00097827",34.6647,-83.7342,"Sautee Nacoochee","GA","SAUTEE 3W"
"USW00013899",30.4781,-87.1869,"Pensacola","FL","PENSACOLA RGNL AP"
"USC00160558",30.4494,-91.0478,"Baton Rouge","LA","BATON ROUGE SHERWOOD"
"USC00406162",35.2242,-85.8414,"Monteagle","TN","MONTEAGLE"
"USW00094225",46.9728,-123.9303,"Hoquiam","WA","HOQUIAM BOWERMAN AP"
"USW00012839",25.7906,-80.3164,"Miami","FL","MIAMI INTL AP"
"USW00013894",30.6794,-88.2397,"Mobile","AL","MOBILE"
"US1FLOK0029",30.4109,-86.6475,"Mary Esther","FL","MARY ESTHER 0.6 E"
"USW00013970",30.5372,-91.1469,"Baton Rouge","LA","BATON ROUGE RYAN AP"
"RQW00011641",18.4325,-66.0108,"Carolina","PR","SAN JUAN L M MARIN AP"
"USW00025309",58.3567,-134.5639,"Juneau","AK","JUNEAU INTL AP"
"USC00164700",30.2003,-92.6642,"Jennings","LA","JENNINGS"
"US1FLMD0022",25.665,-80.4395,"Miami","FL","HAMMOCKS 0.5 SSE"
"USC00400284",35.4322,-84.5833,"Athens","TN","ATHENS"
"USW00093874",30.4119,-89.0808,"Gulfport","MS","GULFPORT - BILOXI AP"
"USW00012916",29.9933,-90.2511,"Kenner","LA","NEW ORLEANS INTL AP"
"USC00462211",39.0981,-79.4322,"Davis","WV","DAVIS 3SE"
"US1FLHB0004",27.9125,-82.2261,"Valrico","FL","VALRICO 2.2 SE"
"USW00013748",34.2675,-77.8997,"Wilmington","NC","WILMINGTON INTL AP"
"USC00226527",34.9536,-89.8297,"Olive Branch","MS","OLIVE BRANCH"
"USW00013833",31.2819,-89.2531,"Hattiesburg","MS","HATTIESBURG CHAIN MUNI AP"
"USW00003937",30.125,-93.2158,"Lake Charles","LA","LAKE CHARLES"
"USC00177238",45.0853,-67.1206,"Robbinston","ME","ROBBINSTON"
"USW00003940",32.3206,-90.0778,"Flowood","MS","JACKSON INTL AP"
"USC00449272",36.7736,-80.2622,"Woolwine","VA","WOOLWINE 1 SE"
"US1TNHT0001",36.3087,-87.7842,"Tennessee Ridge","TN","TENNESSEE RIDGE 1.4 SW"
"US1MSLD0008",32.5498,-88.8206,"Collinsville","MS","COLLINSVILLE 4.0 NNE"
"USC00405956",35.1297,-89.8036,"Memphis","TN","MEMPHIS WFO"
"USC00220656",34.4772,-88.1994,"Golden","MS","BELMONT 2 SSE"
"US1FLBV0001",27.9512,-80.642,"Palm Bay","FL","PALM BAY 2.6 SSE"
"USW00003847",35.9508,-85.0814,"Crossville","TN","CROSSVILLE MEM AP"
"USC00030130",34.7961,-92.8417,"Paron","AR","ALUM FK"
"USC00407184",35.5983,-85.1939,"Pikeville","TN","PIKEVILLE"
"USC00408868",36.465,-83.5603,"Tazewell","TN","TAZEWELL"
"USC00408160",35.1647,-88.5994,"Selmer","TN","SELMER"
"US1MSWN0002",32.9751,-89.117,"Noxapater","MS","NOXAPATER 3.3 WSW"
"USC00303851",43.5753,-75.5208,"Constableville","NY","HIGHMARKET"
"USW00093805",30.3975,-84.3289,"Tallahassee","FL","TALLAHASSEE"
"USW00013865",32.3347,-88.7442,"Meridian","MS","MERIDIAN KEY FLD"
"USS0019K07S",39.32,-119.89,"Reno","NV","Mt Rose Ski Area"
"USW00093862",34.2622,-88.7714,"Tupelo","MS","TUPELO RGNL AP"
"US1TNMY0008",35.6072,-87.0592,"Columbia","TN","COLUMBIA 1.2 SSW"
"USC00157215",36.7461,-86.2258,"Scottsville","KY","SCOTTSVILLE"
"US1TNRD0001",35.9247,-86.4367,"Murfreesboro","TN","MURFREESBORO 5.5 NNW"
"US1INDB0001",38.2929,-86.9611,"Huntingburg","IN","HUNTINGBURG 0.4 SSW"
"USC00365344",40.8344,-76.1353,"Mahanoy City","PA","MAHANOY CITY 2 N"
"USC00155097",37.1317,-86.1481,"Park City","KY","MAMMOTH CAVE"
"US1KYTD0002",36.6534,-87.184,"Guthrie","KY","GUTHRIE 0.8 WNW"
"US1GACW0002",33.4273,-84.6607,"Sharpsburg","GA","SHARPSBURG 6.0 N"
"USW00013893",35.0564,-89.9864,"Memphis","TN","MEMPHIS INTL AP"
"USC00154958",38.115,-85.6444,"Louisville","KY","LOUISVILLE WFO"
"USW00013882",35.0311,-85.2014,"Chattanooga","TN","CHATTANOOGA LOVELL AP"
"USW00003811",35.5931,-88.9167,"Jackson","TN","JACKSON MCKELLAR AP"
"USC00414325",29.66,-95.6275,"Sugar Land","TX","HOUSTON-WESTBURY"
"US1GACW0009",33.384,-84.8338,"Newnan","GA","NEWNAN 2.6 W"
"USW00013876",33.5656,-86.745,"Birmingham","AL","BIRMINGHAM AP"
"USC00178792",45.4353,-67.7214,"Topsfield","ME","TOPSFIELD 2"
"USW00013942",32.5156,-92.0406,"Monroe","LA","MONROE RGNL AP"
"USW00003952",34.8364,-92.2619,"North Little Rock","AR","LITTLE ROCK"
"USW00003889",37.5908,-83.3131,"Jackson","KY","JACKSON"
"USW00003856",34.6439,-86.7861,"Madison","AL","HUNTSVILLE INTL AP"
"US1GAFT0019",33.7014,-84.5722,"Atlanta","GA","EAST POINT 6.3 WNW"
"US1PABR0002",40.3162,-75.9887,"Reading","PA","READING 3.5 SW"
"USC00301625",42.6472,-78.7111,"Colden","NY","COLDEN 1W"
"USC00085359",25.9492,-81.7139,"Marco Island","FL","MARCO IS"
"USW00013880",32.8986,-80.0403,"Charleston Afb","SC","CHARLESTON INTL AP"
"USW00012842",27.9619,-82.5403,"Tampa","FL","TAMPA INTL AP"
"USW00093820",38.0408,-84.6058,"Lexington","KY","LEXINGTON BLUEGRASS AP"
"USW00013891",35.8181,-83.9858,"Alcoa","TN","KNOXVILLE MCGHEE TYSON AP"
"US1INOW0009",39.1858,-86.7782,"Spencer","IN","SPENCER 7.0 S"
"USC00166584",31.8142,-93.0856,"Natchitoches","LA","NATCHITOCHES #2"
"USC00450482",45.7717,-122.5286,"Battle Ground","WA","BATTLE GROUND"
"USW00003816",37.0683,-88.7719,"West Paducah","KY","PADUCAH"
"US1INWK0005",38.0805,-87.2758,"Boonville","IN","BOONVILLE 2.4 N"
"USC00382735",32.6072,-80.3258,"Edisto Island","SC","EDISTO IS MIDDLETON PLANTATION"
"USW00013963",34.7272,-92.2389,"Little Rock","AR","LITTLE ROCK AP ADAMS FLD"
"USW00003812",35.4319,-82.5375,"Fletcher","NC","ASHEVILLE RGNL AP"
"USC00065445",41.9725,-73.2208,"Norfolk","CT","NORFOLK 2 SW"
"USC00190736",42.2122,-71.1136,"Milton","MA","BLUE HILL"
"USW00013897",36.1189,-86.6892,"Nashville","TN","NASHVILLE INTL AP"
"USW00093808",36.9647,-86.4239,"Bowling Green","KY","BOWLING GREEN WARREN CO AP"
"USW00012918",29.6381,-95.2819,"Houston","TX","HOUSTON HOBBY AP"
"USC00195984",41.9928,-71.1667,"Norton","MA","NORTON W"
"USW00093821",38.1811,-85.7392,"Louisville","KY","LOUISVILLE INTL AP"
"USC00171131",43.2242,-70.6389,"Cape Neddick","ME","CAPE NEDDICK"
"USC00443375",37.6183,-79.4358,"Buena Vista","VA","GLASGOW 1 SE"
"USW00024227",46.9733,-122.9033,"Olympia","WA","OLYMPIA AP"
"US1NCWK0013",35.8624,-78.5665,"Raleigh","NC","RALEIGH 5.9 ENE"
"USC00185934",39.7194,-76.8028,"Manchester","MD","MILLERS 4 NE"
"USC00193624",42.2269,-70.9125,"Hingham","MA","HINGHAM"
"US1NCNS0002",35.9713,-78.0134,"Nashville","NC","NASHVILLE 3.2 W"
"USC00448192",36.7297,-76.6014,"Suffolk","VA","SUFFOLK LAKE KILBY"
"USW00003870",34.8831,-82.2203,"Greer","SC","GREER"
"USC00173862",43.6475,-70.675,"Hollis Center","ME","HOLLIS"
"USW00013874",33.63,-84.4417,"Atlanta","GA","ATLANTA HARTSFIELD INTL AP"
"US1DENC0002",39.6249,-75.7861,"Newark","DE","NEWARK 3.9 SSW"
"USW00012960",29.98,-95.36,"Houston","TX","HOUSTON INTERCONT AP"
"USC00360868",41.8981,-78.7144,"Bradford","PA","BRADFORD 4SW RSCH 5"
"USW00014737",40.6508,-75.4492,"Catasauqua","PA","ALLENTOWN INTL AP"
"USW00094728",40.7789,-73.9692,"New York","NY","NEW YORK CNTRL PK TWR"
"USW00013895",32.2997,-86.4075,"Montgomery","AL","MONTGOMERY AP"
"USC00368361",41.8161,-80.425,"Springboro","PA","SPRINGBORO 3 WNW"
"USW00094746",42.2706,-71.8731,"Worcester","MA","WORCESTER RGNL AP"
"USW00012834",29.1828,-81.0483,"Daytona Beach","FL","DAYTONA BEACH INTL AP"
"USS0022F18S",43.19,-122.14,"Chemult","OR","Diamond Lake"
"USC00091500",31.1903,-84.2036,"Camilla","GA","CAMILLA 3SE"
"USW00013873",33.9481,-83.3275,"Athens","GA","ATHENS BEN EPPS AP"
"USC00175736",44.6353,-70.0003,"New Sharon","ME","NEW SHARON"
"US1DENC0010",39.7256,-75.6488,"Wilmington","DE","NEWPORT 2.4 WNW"
"USS0015B02S",47.46,-115.71,"Mullan","ID","Lookout"
"USW00093718",33.8117,-78.7239,"North Myrtle Beach","SC","N MYRTLE BCH AP"
"USW00012816",29.6919,-82.2756,"Gainesville","FL","GAINESVILLE RGNL AP"
"USC00178817",44.2822,-70.2561,"Turner","ME","TURNER"
"USC00361810",41.7392,-77.9711,"Coudersport","PA","COUDERSPORT 7SE"
"USC00387687",34.6111,-82.7269,"Pendleton","SC","SANDY SPRINGS 2 NE"
"USW00012815",28.4339,-81.325,"Orlando","FL","ORLANDO INTL AP"
"US1FLLK0003",28.565,-81.824,"Groveland","FL","GROVELAND 1.7 E"
"US1NHMR0006",43.52,-71.819,"Danbury","NH","DANBURY 2.2 ESE"
"US1INDV0001",38.6754,-87.19,"Washington","IN","WASHINGTON 1.5 NW"
"USC00170409",43.9317,-69.8564,"Bath","ME","BATH"
"USW00013889",30.4844,-81.7019,"Jacksonville","FL","JACKSONVILLE"
"USC00172048",43.9997,-70.0964,"Durham","ME","DURHAM"
"USC00300321",42.9328,-76.5447,"Auburn","NY","AUBURN"
"USW00014764",43.6497,-70.3003,"Portland","ME","PORTLAND INTL JETPORT"
"USW00093814",39.0431,-84.6717,"Hebron","KY","CINCINNATI NORTHERN KY AP"
"USC00317845",35.3111,-81.5708,"Shelby","NC","SHELBY 2 NW"
"USW00093842",32.5161,-84.9422,"Columbus","GA","COLUMBUS METRO AP"
"USW00012838",28.1011,-80.6439,"Melbourne","FL","MELBOURNE INTL AP"
"USW00003860",38.365,-82.555,"Huntington","WV","HUNTINGTON TRI STATE AP"
"USW00014765",41.7219,-71.4325,"Warwick","RI","PROVIDENCE T F GREEN AP"
"USC00353971",44.3525,-122.7842,"Sweet Home","OR","HOLLEY"
"USW00014711",40.1936,-76.7633,"Middletown","PA","MIDDLETOWN HARRISBURG INTL AP"
"USC00367732",39.8958,-76.3947,"Brogue","PA","SAFE HARBOR DAM"
"USC00317202",36.3797,-79.6944,"Reidsville","NC","REIDSVILLE 2 NW"
"USW00014734",40.6825,-74.1694,"Elizabeth","NJ","NEWARK INTL AP"
"USW00013722",35.8922,-78.7819,"Morrisville","NC","RALEIGH DURHAM INTL AP"
"USW00053860",30.3361,-81.5147,"Jacksonville","FL","JACKSONVILLE CRAIG MUNI AP"
"USW00014740",41.9381,-72.6825,"Windsor Locks","CT","HARTFORD BRADLEY INTL AP"
"USC00319675",36.1306,-80.5481,"Yadkinville","NC","YADKINVILLE 6 E"
"USC00235027",37.3908,-93.9492,"Lockwood","MO","LOCKWOOD"
"USW00013866",38.3794,-81.59,"Charleston","WV","CHARLESTON YEAGER AP"
"US1INHN0011",39.937,-85.9,"Fortville","IN","MCCORDSVILLE 2.6 NE"
"USC00314996",35.4606,-81.3297,"Lincolnton","NC","LINCOLNTON 4 W"
"USC00406534",35.9833,-83.2008,"Newport","TN","NEWPORT 1 NW"
"USW00013957",32.4506,-93.8411,"Shreveport","LA","SHREVEPORT"
"USW00013964",35.3331,-94.3625,"Fort Smith","AR","FT SMITH RGNL AP"
"USC00446475",37.5844,-75.8217,"Painter","VA","PAINTER 2 W"
"USW00003962",34.29,-93.06,"Bismarck","AR","HOT SPRINGS ASOS"
"USS0021C28S",46.64,-121.38,"Naches","WA","White Pass E.S."
"USW00093987",31.2361,-94.7544,"Diboll","TX","LUFKIN ANGELINA CO AP"
"US1NCGL0008",36.1515,-79.7968,"Greensboro","NC","GREENSBORO 5.3 NNE"
"USW00013786",36.2606,-76.175,"Elizabeth City","NC","ELIZABETH CITY CGAS"
"USW00013781",39.6728,-75.6008,"New Castle","DE","WILMINGTON NEW CASTLE CO AP"
"USW00012923",29.2733,-94.8592,"Galveston","TX","GALVESTON SCHOLES FLD"
"USW00093721",39.1667,-76.6833,"Hanover","MD","BALTIMORE WASH INTL AP"
"US1ILSC0003",38.5096,-89.9711,"Belleville","IL","BELLEVILLE 2.2 SE"
"USC00193276",42.7467,-71.0425,"Groveland","MA","GROVELAND"
"USS0013A27S",48.8,-113.67,"Cut Bank","MT","Many Glacier"
"USW00093720",38.3406,-75.5103,"Salisbury","MD","SALISBURY WICOMICO RGNL AP"
"USC00272302",42.8267,-71.6261,"Milford","NH","E MILFORD"
"USW00003822",32.13,-81.21,"Savannah","GA","SAVANNAH INTL AP"
"USW00004781",40.7939,-73.1017,"Ronkonkoma","NY","ISLIP LI MACARTHUR AP"
"USC00190120",42.3861,-72.5375,"Amherst","MA","AMHERST"
"USC00351897",43.7917,-123.0275,"Cottage Grove","OR","COTTAGE GROVE 2E"
"US1MOFSA065",37.6605,-91.5535,"Salem","MO","SALEM 1.8 NW"
"USC00237263",37.9567,-91.7761,"Rolla","MO","ROLLA MISSOURI S&T"
"USC00313555",36.0503,-79.3728,"Graham","NC","GRAHAM 2 ENE"
"US1ILWL0051",41.5819,-88.1937,"Plainfield","IL","PLAINFIELD 2.4 SSE"
"USW00013877",36.4731,-82.4044,"Blountville","TN","BRISTOL TRI CITY AP"
"USW00014732",40.7794,-73.8803,"East Elmhurst","NY","NEW YORK LAGUARDIA AP"
"USW00014778",41.2433,-76.9217,"Montoursville","PA","WILLIAMSPORT"
"USW00013741",37.3169,-79.9742,"Roanoke","VA","ROANOKE RGNL AP"
"USW00013971",36.2667,-93.1567,"Harrison","AR","HARRISON BOONE CO AP"
"USC00274234",42.7831,-71.4147,"Hudson","NH","HUDSON 1 SSE"
"USW00003813",32.6847,-83.6528,"Macon","GA","MACON MIDDLE GA RGNL AP"
"USW00013723",36.0969,-79.9433,"Greensboro","NC","PIEDMONT TRIAD INTL AP"
"USC00368469",41.4039,-78.0183,"Austin","PA","STEVENSON DAM"
"USW00004725",42.1997,-75.985,"Johnson City","NY","BINGHAMTON"
"USC00307705",42.6772,-75.5067,"Sherburne","NY","SHERBURNE"
"USW00013740",37.505,-77.3203,"Richmond","VA","RICHMOND INTL AP"
"USW00014860",42.08,-80.1825,"Erie","PA","ERIE INTL AP"
"USC00128784",40.2233,-86.1086,"Tipton","IN","TIPTON 5 SW"
"USS0005J37S",40.53,-105.89,"Bellvue","CO","Joe Wright"
"USW00013883",33.9486,-81.1186,"West Columbia","SC","COLUMBIA"
"USW00094702",41.1583,-73.1289,"Stratford","CT","BRIDGEPORT SIKORSKY MEM AP"
"USC00441955",37.2819,-78.9592,"Concord","VA","CONCORD 4 SSW"
"USS0015C05S",46.49,-115.8,"Pierce","ID","Pierce R.S."
"US1OHMD0002",41.2498,-81.8133,"Brunswick","OH","BRUNSWICK 0.5 NE"
"USW00013736",39.6428,-79.9164,"Morgantown","WV","MORGANTOWN HART FLD"
"USC00444148",37.1258,-79.525,"Huddleston","VA","HUDDLESTON 4 SW"
"USW00094789",40.6386,-73.7622,"Springfield Gardens","NY","NEW YORK JFK INTL AP"
"USW00013995",37.2353,-93.4003,"Springfield","MO","SPRINGFIELD"
"USW00013881",35.2236,-80.9553,"Charlotte","NC","CHARLOTTE DOUGLAS AP"
"USW00003872",37.7836,-81.1231,"Beaver","WV","BECKLEY RALEIGH CO AP"
"USW00093739",37.9406,-75.4631,"Horntown","VA","WALLOPS ISLAND FLIGHT FAC"
"USW00014852",41.2544,-80.6739,"Vienna","OH","YOUNGSTOWN RGNL AP"
"USW00093846",34.4978,-82.7097,"Anderson","SC","ANDERSON CO AP"
"USC00125407",39.4039,-86.453,"Martinsville","IN","MARTINSVILLE 2 SW"
"US1OHFR0003",39.981,-83.0401,"Columbus","OH","GRANDVIEW HEIGHTS 0.1 N"
"USC00369408",41.7003,-77.3872,"Wellsboro","PA","WELLSBORO 4 SW"
"USC00330279",39.3225,-82.0994,"Athens","OH","ATHENS OU"
"USC00367409",41.33,-77.7381,"Renovo","PA","RENOVO"
"USW00003901",32.3847,-94.7117,"Longview","TX","LONGVIEW E TX RGNL AP"
"USW00014895",40.9167,-81.4333,"Canton","OH","AKRON CANTON RGNL AP"
"USW00014820",41.4131,-81.86,"Cleveland","OH","CLEVELAND"
"USW00093819",39.7075,-86.2803,"Indianapolis","IN","INDIANAPOLIS"
"USC00117457",41.6042,-88.085,"Romeoville","IL","ROMEOVILLE WFO"
"USW00013994",38.7525,-90.3736,"Bridgeton","MO","ST LOUIS LAMBERT INTL AP"
"USW00014607",46.8706,-68.0172,"Caribou","ME","CARIBOU MUNI AP"
"USC00360132",40.4189,-78.4197,"Duncansville","PA","ALTOONA 7 SW"
"US1OHPT0012",41.0085,-81.329,"Mogadore","OH","MOGADORE 4.7 SE"
"USC00440766",37.2039,-80.4144,"Blacksburg","VA","BLACKSBURG NWSO"
"USC00368449",40.7933,-77.8672,"State College","PA","STATE COLLEGE"
"USC00441159",37.7267,-79.3628,"Buena Vista","VA","BUENA VISTA"
"USW00014821",39.9914,-82.8808,"Columbus","OH","COLUMBUS PORT COLUMBUS INTL AP"
"USC00231801",38.9425,-92.3206,"Columbia","MO","COLUMBIA U OF M"
"USW00014891",40.8203,-82.5178,"Mansfield","OH","MANSFIELD LAHM MUNI AP"
"USW00004751",41.8031,-78.6403,"Lewis Run","PA","BRADFORD RGNL AP"
"US1MDAL0002",39.5768,-78.8498,"Cumberland","MD","CRESAPTOWN-BEL AIR 0.9 SSE"
"USW00014745",43.1953,-71.5011,"Concord","NH","CONCORD MUNI AP"
"US1ILGY0001",41.3414,-88.2981,"Morris","IL","CARBON HILL 3.1 N"
"USW00013878",31.1522,-81.3908,"Saint Simons Island","GA","BRUNSWICK MALCOLM MCKINNON AP"
"USW00013733",37.3208,-79.2067,"Lynchburg","VA","LYNCHBURG RGNL AP"
"USC00211198",43.6308,-91.5028,"Caledonia","MN","CALEDONIA"
"USC00315356",35.8033,-82.6658,"Marshall","NC","MARSHALL"
"US1ILWD0005",41.816,-89.904,"Morrison","IL","MORRISON 3.2 E"
"USW00014606",44.7978,-68.8186,"Bangor","ME","BANGOR INTL AP"
"USW00003820",33.3644,-81.9633,"Augusta","GA","AUGUSTA BUSH FLD AP"
"USW00094823",40.4847,-80.2144,"Coraopolis","PA","PITTSBURGH INTL AP"
"USW00013743",38.8483,-77.0342,"Arlington","VA","WASHINGTON REAGAN AP"
"USC00437054",44.42,-72.0194,"Saint Johnsbury","VT","SAINT JOHNSBURY"
"USC00369823",40.0394,-78.5239,"Bedford","PA","WOLFSBURG"
"US1ILCN0003",39.4736,-89.0462,"Assumption","IL","PANA 6.2 NNE"
"USC00442044",37.8111,-79.9883,"Covington","VA","COVINGTON FLTR PLT"
"USC00474790",43.3217,-89.5311,"Lodi","WI","LODI"
"USW00024233",47.4444,-122.3139,"Seattle","WA","SEATTLE TACOMA INTL AP"
"USC00464840",39.4214,-79.005,"Keyser","WV","KEYSER 2 SSW"
"USS0020L02S",39,-120.13,"Tahoma","CA","Rubicon #2"
"USW00014733",42.9486,-78.7369,"Buffalo","NY","BUFFALO"
"USW00094860",42.8939,-85.5447,"Grand Rapids","MI","GRAND RAPIDS"
"USW00093815",39.9061,-84.2186,"Vandalia","OH","DAYTON INTL AP"
"USW00094908",42.3978,-90.7036,"Dubuque","IA","DUBUQUE RGNL AP"
"USC00304996",44.8419,-74.3081,"Malone","NY","MALONE"
"USW00094846",41.995,-87.9336,"Elk Grove Village","IL","CHICAGO OHARE INTL AP"
"USC00115961",42.2553,-88.0775,"Mundelein","IL","MUNDELEIN 4 WSW"
"USW00003904",30.5892,-96.3647,"College Station","TX","COLLEGE STN"
"US1OHSN0003",41.0589,-83.1127,"Tiffin","OH","TIFFIN 5.2 SE"
"USW00024213",40.8097,-124.1603,"Eureka","CA","EUREKA WFO WOODLEY ISLAND"
"USW00003947",39.2972,-94.7306,"Kansas City","MO","KANSAS CITY INTL AP"
"USW00014827",40.9706,-85.2064,"Fort Wayne","IN","FT WAYNE INTL AP"
"USW00014842",40.6675,-89.6839,"Peoria","IL","PEORIA GTR PEORIA AP"
"US1IASR0002",42.0448,-93.6174,"Ames","IA","AMES 1.5 NNE"
"US1MIIN0001",42.9576,-85.1738,"Saranac","MI","SARANAC 2.6 NE"
"USC00476827",43.0514,-91.135,"Prairie Du Chien","WI","PRAIRIE DU CHIEN"
"USS0020K27S",39.17,-120.15,"Tahoe City","CA","Tahoe City Cross"
"USW00014605",44.3206,-69.7972,"Augusta","ME","AUGUSTA STATE AP"
"USC00474937",43.2117,-91.0986,"Eastman","WI","LYNXVILLE DAM 9"
"USC00476718",43.5278,-89.4342,"Portage","WI","PORTAGE"
"US1VASH0002",39.0422,-78.3506,"Strasburg","VA","STRASBURG 3.7 N"
"USW00024232",44.905,-123.0011,"Salem","OR","SALEM MCNARY FLD"
"USC00114710",41.2428,-89.8997,"Kewanee","IL","KEWANEE 1 E"
"USW00093822",39.8447,-89.6839,"Springfield","IL","SPRINGFIELD CAPITAL AP"
"USC00478540",43.4719,-88.8825,"Beaver Dam","WI","TOWN OF WESTFORD"
"USW00013972",32.3542,-95.4025,"Tyler","TX","TYLER POUNDS FLD"
"US1OHDR0001",40.1526,-84.4613,"Bradford","OH","BRADFORD 2.3 NW"
"USC00436995",43.6253,-72.9781,"Rutland","VT","RUTLAND"
"USC00208774",44.2294,-85.9572,"Wellston","MI","WELLSTON 1N"
"US1OHSM0005",41.1623,-81.5037,"Cuyahoga Falls","OH","CUYAHOGA FALLS 1.1 ESE"
"USC00231580",39.775,-93.5358,"Chillicothe","MO","CHILLICOTHE 2S"
"USC00336405",40.9461,-83.9614,"Pandora","OH","PANDORA"
"USS0007M33S",37.89,-107.71,"Silverton","CO","Red Mountain Pass"
"USW00013870",31.5358,-82.5067,"Alma","GA","ALMA BACON CO AP"
"USS0007K06S",39.05,-107.87,"Cedaredge","CO","Park Reservoir"
"USW00094290",47.6872,-122.2553,"Seattle","WA","SEATTLE SAND PT WSFO"
"US1INEL0008",41.5655,-85.9933,"Goshen","IN","WAKARUSA 2.4 NNE"
"USW00014923",41.4653,-90.5233,"Moline","IL","MOLINE QUAD CITY INTL AP"
"USW00014742",44.4683,-73.15,"South Burlington","VT","BURLINGTON INTL AP"
"USW00012836",24.555,-81.7522,"Key West","FL","KEY WEST INTL AP"
"USC00470124",44.3272,-91.9194,"Alma","WI","ALMA DAM 4"
"USW00014837",43.1406,-89.3453,"Madison","WI","MADISON DANE RGNL AP"
"USC00471078",42.6333,-89.3867,"Brodhead","WI","BRODHEAD"
"USC00200230",42.2981,-83.6639,"Ann Arbor","MI","ANN ARBOR U OF MICH"
"US1IAWB0005",42.6426,-94.1879,"Badger","IA","BADGER 3.1 NW"
"USW00094822",42.1928,-89.0931,"Rockford","IL","ROCKFORD GTR ROCKFORD AP"
"USC00472973",43.975,-89.8308,"Friendship","WI","FRIENDSHIP"
"USC00200758",44.5317,-86.1311,"Frankfort","MI","BEULAH 7SSW"
"USC00200228",42.2417,-83.6933,"Ann Arbor","MI","ANN ARBOR SE"
"USW00014933",41.5339,-93.6531,"Des Moines","IA","DES MOINES INTL AP"
"USC00115079",40.1519,-89.3386,"Lincoln","IL","LINCOLN"
"USW00014840",43.1711,-86.2367,"Muskegon","MI","MUSKEGON CO AP"
"USC00475581",43.7806,-89.3169,"Montello","WI","MONTELLO"
"USC00470045",42.6475,-89.0644,"Janesville","WI","AFTON"
"USC00203096",45.0333,-84.7114,"Gaylord","MI","GAYLORD"
"USW00024152",45.5114,-118.4247,"Meacham","OR","MEACHAM"
"USW00012935",28.7247,-96.2536,"Palacios","TX","PALACIOS MUNI AP"
"USW00013968",36.1994,-95.8872,"Tulsa","OK","TULSA INTL AP"
"USC00118684",39.7947,-88.2911,"Tuscola","IL","TUSCOLA"
"USC00476200",43.1003,-88.5036,"Oconomowoc","WI","OCONOMOWOC"
"USC00470265",44.2769,-88.4378,"Appleton","WI","APPLETON"
"USC00043578",38.4306,-122.8647,"Sebastopol","CA","GRATON"
"USW00013960",32.8519,-96.8556,"Dallas","TX","DALLAS LOVE FLD"
"USW00014920",43.8789,-91.2528,"La Crosse","WI","LA CROSSE MUNI AP"
"USW00024229",45.5908,-122.6003,"Portland","OR","PORTLAND INTL AP"
"USC00331042",41.4619,-84.5272,"Bryan","OH","BRYAN 2 SE"
"US1IAGT0001",41.7991,-94.3093,"Jamaica","IA","JAMAICA 3.2 S"
"USW00014897",44.9258,-89.6256,"Wausau","WI","WAUSAU DWTN AP"
"USC00368868",41.8975,-77.1419,"Tioga","PA","TIOGA HAMMOND DAM"
"USC00142401",37.8183,-96.8444,"El Dorado","KS","EL DORADO"
"USW00094910",42.5544,-92.4011,"Waterloo","IA","WATERLOO MUNI AP"
"USW00013967",35.3889,-97.6006,"Oklahoma City","OK","OKLAHOMA CITY WILL ROGERS AP"
"USS0020K13S",39.3,-120.18,"Truckee","CA","Truckee #2"
"US1TXCRL003",31.0916,-97.89,"Kempner","TX","KEMPNER 6.7 ENE"
"US1OKCV0032",35.1979,-97.4182,"Norman","OK","NORMAN 2.1 SE"
"USC00361838",41.9903,-77.1567,"Lawrenceville","PA","COWANESQUE DAM"
"USS0007J05S",40.11,-107.29,"Meeker","CO","Ripple Creek"
"USW00014847",46.4794,-84.3572,"Sault Sainte Marie","MI","SAULT STE MARIE SANDERSON FLD"
"USS0005J10S",40.41,-105.82,"Grand Lake","CO","Lake Irene"
"USW00094830",41.5886,-83.8014,"Swanton","OH","TOLEDO EXPRESS AP"
"USW00014925",43.9042,-92.4917,"Rochester","MN","ROCHESTER INTL AP"
"USC00346386",35.1808,-97.4378,"Norman","OK","NORMAN 3SSE"
"USC00413285",32.8339,-97.2975,"Fort Worth","TX","FT WORTH WSFO"
"USW00014750",43.35,-73.6167,"Queensbury","NY","GLENS FALLS AP"
"USW00013958",30.3208,-97.7603,"Austin","TX","AUSTIN-CAMP MABRY"
"USC00130200",42.0208,-93.7742,"Boone","IA","AMES 8 WSW"
"USC00132171",42.0364,-95.3289,"Denison","IA","DENISON"
"USS0006H24S",41.24,-106.23,"Laramie","WY","Cinnabar Park"
"USW00024221",44.1278,-123.2206,"Eugene","OR","EUGENE MAHLON SWEET AP"
"USC00475364",45.1786,-89.6617,"Merrill","WI","MERRILL"
"USS0006H13S",41.36,-106.23,"Centennial","WY","Brooklyn Lake"
"US1KSSG0002",37.6916,-97.4797,"Wichita","KS","MAIZE 5.7 S"
"USW00013996",39.0725,-95.6261,"Topeka","KS","TOPEKA MUNI AP"
"USS0020L10S",38.93,-120.05,"South Lake Tahoe","CA","Fallen Leaf"
"USW00014991",44.8664,-91.4878,"Eau Claire","WI","EAU CLAIRE RGNL AP"
"USC00410433",30.4144,-97.7664,"Austin","TX","AUSTIN GREAT HILLS"
"USW00013904",30.1831,-97.68,"Austin","TX","AUSTIN BERGSTROM AP"
"USW00094847",42.2314,-83.3308,"Romulus","MI","DETROIT METRO AP"
"USW00003927",32.8978,-97.0189,"Irving","TX","DALLAS FT WORTH AP"
"USW00014768",43.1167,-77.6767,"Rochester","NY","ROCHESTER GTR INTL AP"
"USC00471064",44.1614,-88.0803,"Brillion","WI","BRILLION"
"US1KSSG0020",37.6925,-97.4877,"Wichita","KS","WICHITA 7.9 W"
"USC00257545",40.0225,-95.7883,"Salem","NE","SALEM 5SW"
"USW00013959",31.6189,-97.2283,"Waco","TX","WACO RGNL AP"
"USS0006J01S",40.53,-106.78,"Steamboat Springs","CO","Dry Lake"
"USC00201468",45.3172,-85.2672,"Charlevoix","MI","CHARLEVOIX"
"USW00014898",44.4983,-88.1111,"Green Bay","WI","GREEN BAY"
"USC00412585",30.2194,-97.9878,"Austin","TX","DRIPPING SPRINGS 6 E"
"USC00418862",30.5844,-97.4156,"Taylor","TX","TAYLOR 1NW"
"USC00144972",39.1972,-96.5814,"Manhattan","KS","MANHATTAN"
"USC00253467",41.1586,-96.1922,"Omaha","NE","GRETNA 4NE"
"USS0006M22S",37.02,-106.45,"Antonito","CO","Cumbres Trestle"
"USW00014839",42.955,-87.9044,"Milwaukee","WI","MILWAUKEE MITCHELL AP"
"USS0005J39S",40.31,-105.64,"Estes Park","CO","Bear Lake"
"US1KSSG0003",37.7248,-97.4786,"Wichita","KS","MAIZE 3.4 SSW"
"USC00204161",47.0083,-88.4317,"Lake Linden","MI","JACOBSVILLE"
"US1SDMH0020",43.5267,-96.6658,"Sioux Falls","SD","SIOUX FALLS 3.4 ESE"
"USW00013961",32.8192,-97.3614,"Fort Worth","TX","FT WORTH MEACHAM FLD"
"USC00257800",40.2039,-95.7064,"Verdon","NE","SHUBERT 2SW"
"USC00473930",43.3194,-88.1681,"Jackson","WI","JACKSON"
"USC00145132",39.0542,-96.2367,"Mc Farland","KS","MC FARLAND"
"USW00003928",37.6544,-97.4425,"Wichita","KS","WICHITA"
"USC00258395",40.6661,-96.1892,"Syracuse","NE","SYRACUSE"
"USW00014922",44.8831,-93.2289,"Minneapolis","MN","MINNEAPOLIS/ST PAUL AP"
"USC00472055",44.3514,-87.812,"Denmark","WI","DENMARK WWTP"
"RQC00663532",17.9728,-66.9458,"Ensenada","PR","ENSENADA 1 W"
"USS0005K05S",39.67,-105.9,"Silverthorne","CO","Loveland Basin"
"USW00023213",38.5039,-122.8103,"Windsor","CA","SANTA ROSA SONOMA CO AP"
"USC00253050",41.43,-96.4669,"Fremont","NE","FREMONT"
"USW00014942",41.3103,-95.8992,"Omaha","NE","OMAHA EPPLEY AIRFIELD"
"USW00014826",42.9667,-83.7494,"Flint","MI","FLINT BISHOP INTL AP"
"USW00012921",29.5442,-98.4839,"San Antonio","TX","SAN ANTONIO INTL AP"
"USC00204090",45.7858,-88.0842,"Kingsford","MI","IRON MTN-KINGSFORD WWTP"
"USS0018E05S",44.83,-118.19,"Portland","OR","Bourne"
"USS0005J06S",40.81,-105.77,"Red Feather Lakes","CO","Deadman Hill"
"USC00250435",40.3706,-95.7469,"Brownville","NE","AUBURN 5 ESE"
"USW00094725",44.9358,-74.8458,"Massena","NY","MASSENA INTL AP"
"USC00141467",37.7206,-97.7936,"Cheney","KS","CHENEY 5N"
"USC00415429",29.6756,-97.6578,"Luling","TX","LULING"
"USW00014845",43.5331,-84.0797,"Freeland","MI","SAGINAW MBS INTL AP"
"USC00258465",40.3544,-96.1939,"Tecumseh","NE","TECUMSEH 1S"
"USS0008M06S",37.79,-108.02,"Dolores","CO","El Diente Peak"
"USW00014939",40.8508,-96.7475,"Lincoln","NE","LINCOLN MUNI AP"
"USW00014913",46.8369,-92.2097,"Duluth","MN","DULUTH"
"USC00259200",41.845,-96.7142,"West Point","NE","W PT"
"USW00094849",45.0717,-83.5644,"Alpena","MI","ALPENA CO RGNL AP"
"USC00340215",36.2483,-98.1883,"Ames","OK","AMES"
"US1TXWO0010",29.2829,-98.2456,"Adkins","TX","ELMENDORF 5.6 ENE"
"USW00014926",45.5433,-94.0514,"Saint Cloud","MN","ST CLOUD RGNL AP"
"USW00024257",40.5175,-122.2986,"Redding","CA","REDDING MUNI AP"
"USS0005J41S",39.94,-105.59,"Nederland","CO","Lake Eldora"
"USW00094814",44.3592,-84.6739,"Houghton Lake","MI","HOUGHTON LK ROSCOMMON AP"
"USC00259513",40.9153,-97.5997,"Benedict","NE","YORK 3N"
"USW00014943",42.3914,-96.3792,"Sioux City","IA","SIOUX CITY GATEWAY AP"
"USS0005J42S",40.04,-105.54,"Nederland","CO","Niwot"
"USS0007K02S",39.88,-107.6,"Meeker","CO","Burro Mountain"
"USS0011H07S",41.92,-111.47,"Garden City","UT","Garden City Summit"
"USS0007M27S",37.93,-107.68,"Ironton","CO","Idarado"
"USS0006K01S",39.36,-106.06,"Alma","CO","Hoosier Pass"
"USS0014F12S",43.87,-114.71,"Ketchum","ID","Galena Summit"
"USC00148950",38.2936,-97.9114,"Windom","KS","WINDOM 7S"
"USW00094911",42.8783,-97.3633,"Yankton","SD","YANKTON 2 E"
"USC00344019",36.5381,-98.2661,"Helena","OK","HELENA 1 SSE"
"US1KSJW0001",39.9421,-97.9872,"Webber","KS","WEBBER 2.6 ENE"
"USW00014944",43.5878,-96.7289,"Sioux Falls","SD","SIOUX FALLS"
"USW00013980",37.155,-98.0283,"Anthony","KS","ANTHONY"
"USS0007M05S",37.65,-107.81,"Durango","CO","Cascade"
"USW00012924",27.7839,-97.5108,"Corpus Christi","TX","CORPUS CHRISTI"
"USC00252037",42.7364,-97.4969,"Crofton","NE","CROFTON"
"USS0006J15S",40.85,-106.97,"Clark","CO","Elk River"
"USC00253065",40.6558,-97.2208,"Friend","NE","FRIEND 3E"
"USC00417327",32.3664,-99.1925,"Putnam","TX","PUTNAM"
"USC00412011",27.7792,-97.5056,"Corpus Christi","TX","CORPUS CHRISTI NWS"
"US1MTPK0007",45.6357,-110.4331,"Livingston","MT","LIVINGSTON 6.6 ESE"
"USS0005J18S",40.21,-105.57,"Allenspark","CO","Copeland Lake"
"USS0006K16S",39.3,-106.11,"Alma","CO","Buckskin Joe"
"USC00141179",39.8775,-98.3036,"Burr Oak","KS","BURR OAK 1N"
"USC00253175",40.5314,-97.5964,"Geneva","NE","GENEVA"
"USC00253660",40.6472,-98.3836,"Hastings","NE","HASTINGS 4N"
"USS0006K24S",39.49,-106.17,"Frisco","CO","Copper Mountain"
"USW00013966",33.9786,-98.4928,"Sheppard Afb","TX","WICHITA FALLS MUNI AP"
"USC00420819",40.8911,-111.8503,"Bountiful","UT","BOUNTIFUL BENCH"
"USC00045915",37.8792,-121.9303,"Walnut Creek","CA","MT DIABLO JUNCTION"
"USS0006K44S",39.6,-106.54,"Avon","CO","Mccoy Park"
"USS0007K13S",40,-107.24,"Meeker","CO","Trapper Lake"
"USS0007M35S",37.66,-107.8,"Durango","CO","Cascade #2"
"USW00003957",37.2839,-98.5528,"Medicine Lodge","KS","MEDICINE LODGE"
"USC00395481",43.2358,-97.5714,"Menno","SD","MENNO"
"USW00094949",40.6044,-98.4272,"Hastings","NE","HASTINGS MUNI AP"
"USC00411920",29.9614,-98.8944,"Comfort","TX","COMFORT 2"
"US1WASJ0003",48.6079,-122.9466,"Orcas","WA","ORCAS 0.7 NNW"
"USW00014935",40.9611,-98.3136,"Grand Island","NE","GRAND ISLAND AP"
"USW00012919",25.9156,-97.4186,"Brownsville","TX","BROWNSVILLE"
"USS0011R05S",34.75,-111.41,"Happy Jack","AZ","Happy Jack"
"USS0010D07S",45.01,-110.01,"Livingston","MT","Northeast Entrance"
"USC00342944",35.2164,-99.8628,"Erick","OK","ERICK"
"US1COBO0202",40.1103,-105.4391,"Ward","CO","WARD 4.6 NE"
"US1SDMN0001",43.8624,-97.7907,"Fulton","SD","FULTON 9.4 N"
"USW00014941",41.9856,-97.4353,"Norfolk","NE","NORFOLK KARL STEFAN AP"
"US1TXTY0005",32.4096,-100.0846,"Merkel","TX","MERKEL 5.8 SW"
"USC00147542",39.7772,-98.7783,"Smith Center","KS","SMITH CTR"
"USC00413508",28.3064,-98.1222,"George West","TX","GEORGE WEST 2 SSW"
"USS0005K27S",39.66,-105.59,"Idaho Springs","CO","Echo Lake"
"USC00417873",29.3283,-99.4653,"Uvalde","TX","SABINAL"
"USW00013962",32.4106,-99.6822,"Abilene","TX","ABILENE RGNL AP"
"USC00480140",43.7728,-111.0339,"Alta","WY","ALTA 1 NNW"
"USS0003E05S",44.21,-103.79,"Lead","SD","North Rapid Creek"
"USS0005J11S",40.58,-105.63,"Bellvue","CO","Hourglass Lake"
"USS0006K45S",39.6,-106.51,"Avon","CO","Beaver Ck Village"
"USS0006K12S",39.8,-106.03,"Parshall","CO","Middle Fork Camp"
"USS0013D10S",45.17,-113.5,"Dillon","MT","Bloody Dick"
"USC00250050",42.5522,-99.8556,"Ainsworth","NE","AINSWORTH"
"USC00252560",40.2764,-99.7836,"Arapahoe","NE","EDISON"
"USS0008G03S",42.57,-108.84,"Lander","WY","South Pass"
"USS0006G01S",42.73,-106.32,"Casper","WY","Casper Mtn."
"USC00057317",37.9136,-104.9483,"Rye","CO","RYE 1SW"
"USC00143527",38.8586,-99.3358,"Hays","KS","HAYS 1 S"
"USS0006K30S",39.32,-106.61,"Meredith","CO","Kiln"
"US1SDPN0002",44.0886,-103.2997,"Rapid City","SD","RAPID CITY 3.4 WNW"
"USS0006H19S",41.33,-106.5,"Saratoga","WY","South Brush Creek"
"USS0012P02S",35.14,-112.15,"Williams","AZ","White Horse Lake"
"USS0006K14S",39.72,-106.16,"Silverthorne","CO","Summit Ranch"
"USW00014936",44.3981,-98.2231,"Huron","SD","HURON RGNL AP"
"USS0005N04S",36.13,-105.53,"Vadito","NM","Tres Ritos"
"USC00410394",33.1525,-100.2333,"Aspermont","TX","ASPERMONT"
"USW00014914",46.9253,-96.8111,"Fargo","ND","FARGO HECTOR INTL AP"
"USS0014F19S",43.77,-114.42,"Rexburg","ID","Chocolate Gulch"
"USC00056205",38.0264,-107.6725,"Ouray","CO","OURAY #2"
"USW00003103",35.1442,-111.6664,"Flagstaff","AZ","FLAGSTAFF PULLIAM AP"
"USW00023007",34.4272,-100.2831,"Childress","TX","CHILDRESS MUNI AP"
"USC00146637",39.0667,-100.2389,"Quinter","KS","QUINTER"
"USW00013985",37.7608,-99.9683,"Dodge City","KS","DODGE CITY"
"USC00140365",37.1942,-99.7633,"Ashland","KS","ASHLAND"
"USW00024023",41.1214,-100.6694,"North Platte","NE","NORTH PLATTE RGNL AP"
"USC00412121",33.6517,-101.245,"Crosbyton","TX","CROSBYTON"
"USW00014916",47.9428,-97.1839,"Grand Forks","ND","GRAND FORKS INTL AP"
"USC00418818",33.1714,-101.7981,"Tahoka","TX","TAHOKA"
"USW00023034",31.3711,-100.4922,"San Angelo","TX","SAN ANGELO"
"US1CACC0001",37.9898,-122.1085,"Martinez","CA","MARTINEZ 0.8 SSE"
"USW00024020",40.5233,-101.0344,"Hayes Center","NE","HAYES CENTER 1NW"
"USC00394516",43.9025,-99.8583,"Kennebec","SD","KENNEBEC"
"USC00417944",31.3708,-100.4944,"San Angelo","TX","SAN ANGELO WFO"
"USC00415821",34.7261,-100.5372,"Memphis","TX","MEMPHIS"
"USC00020678",35.2303,-111.8222,"","AZ","BELLEMONT WFO"
"USW00022010",29.3783,-100.9269,"Del Rio","TX","DEL RIO INTL AP"
"USW00014929",45.4558,-98.4131,"Aberdeen","SD","ABERDEEN"
"USW00024025",44.3814,-100.2856,"Pierre","SD","PIERRE RGNL AP"
"USC00397277",45.4528,-99.3358,"Roscoe","SD","ROSCOE"
"US1COBO0072",40.0242,-105.2689,"Boulder","CO","BOULDER 1.3 NW"
"USS0010F17S",43.13,-110.2,"Bondurant","WY","East Rim Divide"
"USC00325638",47.8214,-101.2922,"Max","ND","MAX"
"USC00254455",41.2097,-101.6706,"Ogallala","NE","KINGSLEY DAM"
"USW00024011",46.7708,-100.7603,"Bismarck","ND","BISMARCK"
"USS0009S06S",33.69,-109.22,"Morenci","AZ","Beaver Head"
"USS0006K06S",39.3,-106.61,"Meredith","CO","Nast Lake"
"USS0012P01S",35.26,-112.06,"Williams","AZ","Chalender"
"USC00325002",48.6272,-101.3764,"Lansford","ND","LANSFORD"
"USW00026615",60.785,-161.8292,"Bethel Airport","AK","BETHEL AP"
"USW00023047",35.2333,-101.7089,"Amarillo","TX","AMARILLO"
"US1COEP0055",39.1125,-104.859,"Monument","CO","MONUMENT 2.9 N"
"USC00100803",42.3353,-111.385,"Bern","ID","BERN"
"US1MTDL0001",46.1661,-113.0853,"Anaconda","MT","ANACONDA 7.4 NW"
"USC00048587",39.5861,-122.5342,"Elk Creek","CA","STONY GORGE RSVR"
"USC00418232",33.6878,-101.9853,"Shallowater","TX","SHALLOWATER"
"USC00047851",35.3056,-120.6619,"San Luis Obispo","CA","SAN LUIS OBISPO POLY"
"USC00058793",37.3822,-102.2986,"Walsh","CO","WALSH 1 W"
"USS0011P02S",35.27,-111.74,"Flagstaff","AZ","Fort Valley"
"US1TXLK0007",33.5172,-101.9681,"Lubbock","TX","LUBBOCK 6.7 SW"
"USW00023065",39.3669,-101.7,"Goodland","KS","GOODLAND"
"USC00417079",34.1892,-101.7022,"Plainview","TX","PLAINVIEW"
"USC00148287",37.5983,-101.2908,"Ulysses","KS","ULYSSES 3NE"
"USC00417081",34.1981,-101.7461,"Plainview","TX","PLAINVIEW WTR PRODUCTN"
"USC00414967",33.0642,-101.0489,"Justiceburg","TX","LAKE ALAN HENRY"
"USC00411000",35.5303,-102.2564,"Boys Ranch","TX","BOYS RCH"
"USC00053652",38.6867,-105.3925,"Canon City","CO","GUFFEY 9SE"
"USW00023232",38.5069,-121.495,"Sacramento","CA","SACRAMENTO EXECUTIVE AP"
"USC00142980",37.9931,-100.8122,"Garden City","KS","GARDEN CITY EXP STN"
"USW00024225",42.3811,-122.8722,"Central Point","OR","MEDFORD ROGUE VLY AP"
"USW00023042",33.6542,-101.8136,"Lubbock","TX","LUBBOCK"
"USC00411128",33.1908,-102.2681,"Brownfield","TX","BROWNFIELD #2"
"USC00252645",42.0628,-102.3172,"Ellsworth","NE","ELLSWORTH 2W"
"USW00026451",61.1689,-150.0278,"Anchorage","AK","ANCHORAGE INTL AP"
"US1COLR0259",40.5857,-105.1317,"Fort Collins","CO","FCL 2.5 W"
"USC00413972",34.3697,-102.1175,"Hart","TX","HART"
"USC00415183",33.55,-102.3758,"Levelland","TX","LEVELLAND"
"USC00291963",34.5989,-103.2161,"Clovis","NM","CLOVIS 13 N"
"USC00416074",33.7186,-102.7586,"Morton","TX","MORTON"
"USC00244715",45.8728,-104.1583,"Ekalaka","MT","KNOBS 4 SW"
"USC00244558",48.3042,-114.2636,"Kalispell","MT","KALISPELL GLACIER AP"
"US1WYSH0014",44.8122,-106.9763,"Sheridan","WY","SHERIDAN 1.7 NW"
"US1COLR0509",40.3926,-105.1587,"Loveland","CO","LOV 4.0 W"
"US1WYLM0036",41.1449,-104.7547,"Cheyenne","WY","CHEYENNE 2.0 E"
"US1CASM0006",37.5488,-122.2587,"San Mateo","CA","FOSTER CITY 1.3 SW"
"USW00022521",21.3239,-157.9294,"Honolulu","HI","HONOLULU INTL AP"
"USC00481676",41.1517,-104.8061,"Cheyenne","WY","CHEYENNE WFO"
"USW00024157",47.6217,-117.5281,"Spokane","WA","SPOKANE INTL AP"
"USW00024028",41.8706,-103.5931,"Scottsbluff","NE","SCOTTSBLUFF HEILIG AP"
"US1TXMDL006",32.0063,-102.1463,"Midland","TX","MIDLAND 3.0 WSW"
"USW00023051",36.4486,-103.1539,"Clayton","NM","CLAYTON MUNI AIR PK"
"USC00459376",48.4742,-120.1886,"Winthrop","WA","WINTHROP 1 WSW"
"USC00241938",45.6444,-109.2675,"Columbus","MT","COLUMBUS"
"USC00058781",37.6303,-104.7956,"Walsenburg","CO","WALSENBURG 1 NW"
"USC00418964",36.3786,-103.0244,"Texline","TX","TEXLINE"
"USC00054546",37.115,-103.2986,"Kim","CO","KIM 10SSE"
"USW00024029",44.7694,-106.9689,"Sheridan","WY","SHERIDAN CO AP"
"USW00024018",41.1519,-104.8061,"Cheyenne","WY","CHEYENNE"
"USC00055236",40.435,-105.085,"Loveland","CO","LOVELAND 2N"
"USW00024033",45.8069,-108.5422,"Billings","MT","BILLINGS LOGAN INTL AP"
"USW00023254",37.9917,-122.055,"Concord","CA","CONCORD BUCHANAN FLD"
"USW00094055",46.3583,-104.25,"Baker","MT","BAKER MUNI AP"
"USW00024127",40.7781,-111.9694,"Salt Lake City","UT","SALT LAKE CITY INTL AP"
"USW00093037",38.81,-104.6883,"Colorado Springs","CO","COLORADO SPRINGS MUNI AP"
"USW00023062",39.7633,-104.8694,"Denver","CO","DENVER-STAPLETON"
"USW00094008",48.2138,-106.6213,"Glasgow","MT","GLASGOW INTL AP"
"US1AZCH0017",31.549,-110.2776,"Sierra Vista","AZ","SIERRA VISTA 1.3 E"
"US1CASD0012",32.9956,-117.0044,"Poway","CA","POWAY 3.2NE"
"USS0009S04S",33.9,-109.16,"McNary","AZ","Nutrioso"
"USW00023190",34.4258,-119.8425,"Goleta","CA","SANTA BARBARA MUNI AP"
"USC00040029",41.1936,-120.9447,"Adin","CA","ADIN RS"
"US1COLR0662",40.3922,-105.0539,"Loveland","CO","LOVELAND 2.0 SSE"
"USC00051743",39.2367,-107.9797,"Collbran","CO","COLLBRAN 1WSW"
"USW00003017",39.8328,-104.6575,"Denver","CO","DENVER INTL AP"
"USW00024153",46.9208,-114.0925,"Missoula","MT","MISSOULA INTL AP"
"US1IDBV0006",43.6176,-111.884,"Idaho Falls","ID","IDAHO FALLS 11.7 NE"
"US1UTML0001",39.3723,-112.3339,"Oak City","UT","OAK CITY 0.3 SSE"
"USC00044997",37.6922,-121.7692,"Livermore","CA","LIVERMORE"
"USW00023023",31.9433,-102.1889,"Midland","TX","MIDLAND ODESSA"
"US1NMGR0027",33.023,-108.5441,"Cliff","NM","CLIFF 5.7 NE"
"US1COBO0143",40.2001,-105.1087,"Longmont","CO","LONGMONT 2.1 N"
"USW00023237",37.8892,-121.2258,"Stockton","CA","STOCKTON METRO AP"
"US1CALA0001",34.1689,-118.2947,"Glendale","CA","GLENDALE 2.4 WSW"
"USW00026411",64.8039,-147.8761,"Fairbanks","AK","FAIRBANKS INTL AP"
"USW00024149",46.3747,-117.0156,"Lewiston","ID","LEWISTON NEZ PERCE CO AP"
"USW00094012",48.5428,-109.7633,"Havre","MT","HAVRE CITY CO AP"
"US1CARV0008",33.7307,-117.4276,"Corona","CA","CORONA 12.8 SE"
"USW00024089",42.8975,-106.4636,"Casper","WY","CASPER NATRONA CO AP"
"US1AZPM0111",32.139,-110.7674,"Tucson","AZ","TUCSON 10.5 ESE"
"USC00051294",38.46,-105.2256,"Canon City","CO","CANON CITY"
"USW00024155",45.6906,-118.8528,"Pendleton","OR","PENDLETON"
"USC00054254",37.0856,-107.5333,"Ignacio","CO","IGNACIO 6ESE"
"USW00093026",31.4583,-109.6061,"McNeal","AZ","DOUGLAS BISBEE INL AP"
"USW00023293",37.3592,-121.9239,"San Jose","CA","SAN JOSE"
"USC00057033",39.5572,-107.7261,"Rifle","CO","RIFLE 3ENE"
"USC00051964",37.9806,-105.6897,"Crestone","CO","CRESTONE 2 SE"
"USW00024131",43.5667,-116.2406,"Boise","ID","BOISE AIR TERMINAL"
"USW00023233",36.6636,-121.6081,"Salinas","CA","SALINAS MUNICIPAL AP"
"USW00093134",34.0511,-118.2353,"Los Angeles","CA","LOS ANGELES DWTN USC CAMPUS"
"USC00422592",37.7686,-111.5978,"Escalante","UT","ESCALANTE"
"USW00024156",42.9203,-112.5711,"Pocatello","ID","POCATELLO RGNL AP"
"USW00023273",34.8994,-120.4486,"Santa Maria","CA","SANTA MARIA PUBLIC AP"
"USW00023009",33.3075,-104.5083,"Roswell","NM","ROSWELL IND AIR PK"
"USW00023129",33.8117,-118.1464,"Long Beach","CA","LONG BEACH DAUGHERTY FLD"
"USW00023160",32.1314,-110.9553,"Tucson","AZ","TUCSON INTL AP"
"USW00093058",38.29,-104.4983,"Pueblo","CO","PUEBLO MEM AP"
"USC00262570",40.8603,-115.7425,"Elko","NV","ELKO NWS OFFICE"
"USW00093209",35.6697,-120.6283,"Paso Robles","CA","PASO ROBLES MUNI AP"
"USC00042805",33.6861,-117.3458,"Lake Elsinore","CA","ELSINORE"
"USC00487105",42.4717,-106.8528,"Casper","WY","PATHFINDER DAM"
"US1NVWH0011",39.5084,-119.8442,"Reno","NV","RENO 2.4 SSW"
"USW00094185",43.595,-118.9564,"Burns","OR","BURNS MUNI AP"
"US1NVWH0002",39.5573,-119.8144,"Reno","NV","RENO 1.4 NNE"
"USW00023174",33.9381,-118.3889,"Los Angeles","CA","LOS ANGELES INTL AP"
"USW00024121",40.8289,-115.7886,"Elko","NV","ELKO RGNL AP"
"USW00093193",36.78,-119.7194,"Fresno","CA","FRESNO YOSEMITE INTL AP"
"USC00487760",43.0306,-108.3744,"Riverton","WY","RIVERTON"
"US1NMBR0034",35.1278,-106.5437,"Albuquerque","NM","ALBUQUERQUE 4.6 E"
"USW00003170",39.6014,-116.0056,"Eureka","NV","EUREKA AIRPORT"
"USW00023188",32.7336,-117.1831,"San Diego","CA","SAN DIEGO LINDBERGH FLD"
"USW00024138",45.2575,-112.5545,"Dillon","MT","DILLON AP"
"USC00029464",33.7775,-112.5231,"Wittmann","AZ","WITTMANN 1SE"
"US1NMBR0148",35.0944,-106.6123,"Albuquerque","NM","ALBUQUERQUE 1.7 SSE"
"USC00290231",35.0217,-106.6939,"Albuquerque","NM","ALBUQUERQUE VALLEY"
"USC00297477",35.2836,-106.6194,"Rio Rancho","NM","RIO RANCHO #1"
"USW00023066",39.1342,-108.54,"Grand Junction","CO","GRAND JUNCTION WALKER FLD"
"USW00024128",40.9017,-117.8081,"Winnemucca","NV","WINNEMUCCA MUNI AP"
"US1NMDA0116",32.2718,-106.7668,"Las Cruces","NM","MESILLA 2.3 E"
"USC00052184",37.6911,-106.3078,"Monte Vista","CO","DEL NORTE 3ENE"
"USW00023044",31.8111,-106.3758,"El Paso","TX","EL PASO INTL AP"
"USW00024243",46.5683,-120.5428,"Yakima","WA","YAKIMA AIR TERMINAL"
"USC00483396",41.9861,-110.0611,"Kemmerer","WY","FONTENELLE DAM"
"USC00483031",44.4972,-108.3906,"Greybull","WY","EMBLEM"
"USW00023185",39.4839,-119.7711,"Reno","NV","RENO TAHOE INTL AP"
"USW00023050",35.0419,-106.6156,"Albuquerque","NM","ALBUQUERQUE INTL AP"
"USC00027187",32.8117,-111.6314,"Eloy","AZ","ROBSON RCH"
"USC00297481",35.2522,-106.6347,"Rio Rancho","NM","RIO RANCHO #2"
"USW00023194",35.0281,-110.7208,"Winslow","AZ","WINSLOW MUNI AP"
"USW00023183",33.4278,-112.0039,"Phoenix","AZ","PHOENIX SKY HARBOR INTL AP"
"USW00023155",35.4344,-119.0542,"Bakersfield","CA","BAKERSFIELD AP"
"USW00023179",34.7675,-114.6189,"Needles","CA","NEEDLES AP"
"USW00023169",36.0719,-115.1633,"Las Vegas","NV","LAS VEGAS MCCARRAN AP"
