"id","average","rank","latitude","longitude","elevation","state","name","total19"
"USS0021A09S",152.2,1,48.76,-121.7,1072.9,"WA","Marten Ridge",111.4
"FMW00040505",146.2,2,7.45,151.8333,1.5,"FM","CHUUK WSO AP",145.6
"USS0023B18S",132.8,3,47.71,-123.46,1484.4,"WA","Buckinghorse",81.1
"USS0021D33S",122.7,4,45.43,-121.86,1112.5,"OR","Blazed Alder",85.4
"USS0021A36S",119.4,5,48.82,-121.93,1514.9,"WA","MF Nooksack",88.3
"USS0022D03S",118.3,6,45.45,-122.03,819.9,"OR","South Fork Bull Run",84.6
"USW00021504",112.9,7,19.7192,-155.0531,11.6,"HI","HILO INTL AP",100.8
"USS0021D04S",111.2,8,45.46,-121.7,1344.2,"OR","Red Hill",80.2
"USW00094240",105.4,9,47.9375,-124.555,56.4,"WA","QUILLAYUTE STATE AP",81
"USS0021C26S",104.3,10,46.27,-121.96,1197.9,"WA","Lone Pine",74
"USS0021B59S",102,11,47.28,-121.47,984.5,"WA","Meadows Pass",76.3
"GQW00041415",101.8,12,13.4836,144.7961,77.4,"GU","GUAM INTL AP",92
"USS0023D01S",96.5,13,45.54,-123.37,947.9,"OR","Saddle Mountain",72.3
"USS0021B01S",92.9,14,47.75,-121.09,1204,"WA","Stevens Pass",65.6
"USS0016A08S",88.9,15,48.31,-116.07,1645.9,"ID","Bear Mountain",60.9
"USW00014755",87.3,16,44.2667,-71.2994,1910.2,"NH","MT WASHINGTON",87.2
"USS0022E07S",87,17,44.39,-122.17,1072.9,"OR","Jump Off Joe",65.7
"USS0021B63S",82.9,18,47.04,-121.94,1271,"WA","Burnt Mountain",65.2
"USC00455840",80.9,19,48.6758,-121.2419,160,"WA","NEWHALEM",56.9
"USS0022E08S",79.6,20,44.52,-122.09,1124.7,"OR","Daly Lake",63.8
"USC00084461",78,21,26.86,-80.0553,1.5,"FL","JUNO BEACH",89.5
"USS0022F04S",76.6,22,43.61,-122.12,1286.3,"OR","Salt Creek Falls",63.9
"USC00352973",75.7,23,44.0039,-124.0947,22.9,"OR","FLORENCE #2",64.8
"USS0013A19S",75.5,24,48.8,-113.86,1920.2,"MT","Flattop Mtn.",64.7
"USC00353705",75.1,25,45.3128,-123.35,230.4,"OR","HASKINS DAM",50.9
"USS0013A25S",74.2,26,48.16,-113.95,1841,"MT","Noisy Basin",57.4
"USW00094224",73.3,27,46.1569,-123.8825,2.7,"OR","ASTORIA RGNL AP",51.5
"USW00025501",73.2,28,57.7511,-152.4856,24.4,"AK","KODIAK AP",73.8
"USS0021D01S",72.8,29,45.62,-121.7,1008.9,"OR","Greenpoint",50.6
"USC00451679",72.8,30,48.5397,-121.7422,59.4,"WA","CONCRETE PPL FISH STN",52.4
"USC00355221",72.5,31,44.6125,-121.9486,754.4,"OR","MARION FORKS FISH HATCHERY",54.9
"USC00097827",72,32,34.6647,-83.7342,484.9,"GA","SAUTEE 3W",81
"USS0022F14S",71.8,33,43.45,-122.14,1709.9,"OR","Summit Lake",66.1
"USS0017D20S",71.7,34,45.98,-117.95,1700.8,"OR","Milk Shakes",62.2
"USW00013899",71.1,35,30.4781,-87.1869,34.1,"FL","PENSACOLA RGNL AP",52.6
"USC00160558",70.9,36,30.4494,-91.0478,16.8,"LA","BATON ROUGE SHERWOOD",75.9
"USC00406162",70.7,37,35.2242,-85.8414,563.9,"TN","MONTEAGLE",81.9
"USW00094225",69.9,38,46.9728,-123.9303,3.7,"WA","HOQUIAM BOWERMAN AP",45.2
"USS0021E06S",69.8,39,44.42,-121.86,1460,"OR","Hogg Pass",54.1
"USW00012839",69,40,25.7906,-80.3164,8.8,"FL","MIAMI INTL AP",67.2
"USS0021C42S",67.8,41,46.1,-121.96,652.3,"WA","Pepper Creek",52.3
"USW00013894",67.7,42,30.6794,-88.2397,63.4,"AL","MOBILE",64.7
"US1FLOK0029",67.1,43,30.4109,-86.6475,4.9,"FL","MARY ESTHER 0.6 E",54.6
"USS0013B24S",66.6,44,47.68,-113.96,2066.5,"MT","Moss Peak",55.4
"USS0021C38S",66.5,45,46.81,-121.33,1405.1,"WA","Bumping Ridge",48.2
"USW00013970",66.5,46,30.5372,-91.1469,19.5,"LA","BATON ROUGE RYAN AP",64.1
"RQW00011641",66.3,47,18.4325,-66.0108,2.7,"PR","SAN JUAN L M MARIN AP",47
"USW00025309",66.2,48,58.3567,-134.5639,4.9,"AK","JUNEAU INTL AP",60.5
"USS0022F03S",65.8,49,43.59,-122.06,1554.5,"OR","Cascade Summit",53.9
"USC00164700",65.5,50,30.2003,-92.6642,7.6,"LA","JENNINGS",69
"US1FLMD0022",65.4,51,25.665,-80.4395,2.7,"FL","HAMMOCKS 0.5 SSE",63
"USS0014C12S",65.3,52,46.14,-114.51,1950.7,"MT","Twin Lakes",47.3
"USC00400284",64.8,53,35.4322,-84.5833,286.5,"TN","ATHENS",75.7
"US1KYCS0001",64.8,54,37.5245,-84.9965,287.1,"KY","BRADFORDSVILLE 8.5 ENE",69.6
"USS0022G06S",64.7,55,42.87,-122.17,1831.8,"OR","Annie Springs",60.8
"USS0021B04S",64.4,56,47.54,-121.09,1045.5,"WA","Fish Lake",49.5
"USW00093874",64.2,57,30.4119,-89.0808,12.8,"MS","GULFPORT - BILOXI AP",49.2
"USW00012916",63.7,58,29.9933,-90.2511,1.2,"LA","NEW ORLEANS INTL AP",62.6
"USS0015C06S",63.6,59,46.48,-115.63,1770.9,"ID","Hemlock Butte",51.8
"USS0021F21S",63.5,60,43.8,-121.95,1688.6,"OR","Irish Taylor",52.5
"USC00462211",63.2,61,39.0981,-79.4322,1132.3,"WV","DAVIS 3SE",63.8
"USS0021C40S",63.1,62,46.93,-121.95,963.2,"WA","Mowich",52.3
"US1FLHB0004",62.7,63,27.9125,-82.2261,32.9,"FL","VALRICO 2.2 SE",68.1
"USS0015C10S",62.6,64,46.98,-115.03,1844,"MT","Hoodoo Basin",46.6
"USW00013748",62.3,65,34.2675,-77.8997,10.1,"NC","WILMINGTON INTL AP",49.1
"USC00226527",62.3,66,34.9536,-89.8297,117.3,"MS","OLIVE BRANCH",85.2
"USS0023G09S",61.9,67,42.72,-123.2,1322.8,"OR","King Mountain",59.5
"USW00013833",61.6,68,31.2819,-89.2531,46,"MS","HATTIESBURG CHAIN MUNI AP",66.6
"USW00003937",61.6,69,30.125,-93.2158,4,"LA","LAKE CHARLES",66
"USC00177238",61.3,70,45.0853,-67.1206,35.1,"ME","ROBBINSTON",70
"USW00003940",61.1,71,32.3206,-90.0778,100.6,"MS","JACKSON INTL AP",64.2
"USS0020K30S",61,72,39.19,-120.26,2447.2,"CA","Squaw Valley G.C.",69.6
"USC00449272",61,73,36.7736,-80.2622,385,"VA","WOOLWINE 1 SE",56.6
"USS0020L06S",60.9,74,38.85,-120.08,2337.8,"CA","Echo Peak",71.2
"USS0022G33S",60.5,75,42.7,-122.14,1737.4,"OR","Sevenmile Marsh",54.6
"US1TNHT0001",60.4,76,36.3087,-87.7842,210,"TN","TENNESSEE RIDGE 1.4 SW",61.6
"US1MSLD0008",60.4,77,32.5498,-88.8206,118,"MS","COLLINSVILLE 4.0 NNE",67.6
"USS0006J29S",60.3,78,40.54,-106.68,3200.4,"CO","Tower",68.9
"USC00405956",60.3,79,35.1297,-89.8036,94.5,"TN","MEMPHIS WFO",76.7
"USC00220656",60.1,80,34.4772,-88.1994,186.5,"MS","BELMONT 2 SSE",76.8
"US1FLBV0001",59.6,81,27.9512,-80.642,11.9,"FL","PALM BAY 2.6 SSE",67.8
"USW00003847",59.6,82,35.9508,-85.0814,569.1,"TN","CROSSVILLE MEM AP",68
"USC00030130",59.3,83,34.7961,-92.8417,212.8,"AR","ALUM FK",73.9
"USC00407184",58.6,84,35.5983,-85.1939,263.3,"TN","PIKEVILLE",70.2
"USC00408868",58.6,85,36.465,-83.5603,416.1,"TN","TAZEWELL",71.7
"USC00408160",58.4,86,35.1647,-88.5994,143.3,"TN","SELMER",71.8
"US1MSWN0002",58.3,87,32.9751,-89.117,145.1,"MS","NOXAPATER 3.3 WSW",75.6
"USC00303851",58.3,88,43.5753,-75.5208,537.4,"NY","HIGHMARKET",65.4
"USW00093805",57.6,89,30.3975,-84.3289,19.2,"FL","TALLAHASSEE",39.1
"USW00013865",57.6,90,32.3347,-88.7442,89.6,"MS","MERIDIAN KEY FLD",60.6
"USS0019K07S",57.6,91,39.32,-119.89,2682.5,"NV","Mt Rose Ski Area",80.7
"USW00093862",57.3,92,34.2622,-88.7714,110,"MS","TUPELO RGNL AP",77
"US1TNMY0008",57.3,93,35.6072,-87.0592,220.1,"TN","COLUMBIA 1.2 SSW",64.7
"USS0019L38S",57.3,94,38.28,-119.61,2931.3,"CA","Leavitt Lake",72
"USC00157215",57.3,95,36.7461,-86.2258,226.5,"KY","SCOTTSVILLE",69.5
"US1TNRD0001",57.2,96,35.9247,-86.4367,167.9,"TN","MURFREESBORO 5.5 NNW",69
"USS0011E35S",57.2,97,44.51,-111.13,2490.2,"MT","Black Bear",63.2
"US1INDB0001",56.9,98,38.2929,-86.9611,153.3,"IN","HUNTINGBURG 0.4 SSW",68.2
"USC00365344",56.7,99,40.8344,-76.1353,521.2,"PA","MAHANOY CITY 2 N",56.7
"USC00155097",56.6,100,37.1317,-86.1481,231.6,"KY","MAMMOTH CAVE",64.9
"US1KYTD0002",56.5,101,36.6534,-87.184,164.6,"KY","GUTHRIE 0.8 WNW",61.2
"US1GACW0002",56.5,102,33.4273,-84.6607,270.4,"GA","SHARPSBURG 6.0 N",55
"USW00013893",56.4,103,35.0564,-89.9864,77.4,"TN","MEMPHIS INTL AP",73.7
"USC00154958",56.2,104,38.115,-85.6444,192.6,"KY","LOUISVILLE WFO",59.2
"USW00013882",56.2,105,35.0311,-85.2014,204.5,"TN","CHATTANOOGA LOVELL AP",63.2
"USS0019L19S",56.2,106,38.55,-119.8,2671.6,"CA","Ebbetts Pass",73.8
"USW00003811",56.1,107,35.5931,-88.9167,132,"TN","JACKSON MCKELLAR AP",66.2
"USC00414325",56.1,108,29.66,-95.6275,15.2,"TX","HOUSTON-WESTBURY",55.2
"USS0009D06S",55.8,109,45.06,-109.94,2773.7,"MT","Fisher Creek",60
"US1GACW0009",55.8,110,33.384,-84.8338,266.4,"GA","NEWNAN 2.6 W",56.9
"USW00013876",55.7,111,33.5656,-86.745,187.5,"AL","BIRMINGHAM AP",52.6
"USC00178792",55.7,112,45.4353,-67.7214,189,"ME","TOPSFIELD 2",61
"USW00013942",55.7,113,32.5156,-92.0406,24.1,"LA","MONROE RGNL AP",61.7
"USW00003952",55.6,114,34.8364,-92.2619,173.1,"AR","LITTLE ROCK",66.2
"USW00003889",55.6,115,37.5908,-83.3131,415.7,"KY","JACKSON",57.6
"USW00003856",55.4,116,34.6439,-86.7861,190.2,"AL","HUNTSVILLE INTL AP",61.6
"USS0021D13S",55.4,117,45.1,-121.75,1036.3,"OR","Clackamas Lake",42.3
"US1GAFT0019",54.8,118,33.7014,-84.5722,264.6,"GA","EAST POINT 6.3 WNW",55.2
"US1PABR0002",54.7,119,40.3162,-75.9887,97.5,"PA","READING 3.5 SW",66.6
"USS0022G21S",54.7,120,42.05,-122.85,1844,"OR","Big Red Mountain",56.9
"USC00301625",54.6,121,42.6472,-78.7111,467.9,"NY","COLDEN 1W",54.9
"USC00085359",54.5,122,25.9492,-81.7139,3,"FL","MARCO IS",57.1
"USW00013880",54.4,123,32.8986,-80.0403,12.2,"SC","CHARLESTON INTL AP",49.5
"USS0017D06S",54.3,124,45.27,-117.69,1755.6,"OR","Moss Springs",54.4
"USW00012842",54.3,125,27.9619,-82.5403,5.8,"FL","TAMPA INTL AP",60.8
"USW00093820",54.3,126,38.0408,-84.6058,298.7,"KY","LEXINGTON BLUEGRASS AP",56.1
"USS0015E04S",54.2,127,44.54,-115.56,2090.9,"ID","Deadwood Summit",52.1
"USS0011H08S",54.2,128,41.38,-111.94,2438.4,"UT","Ben Lomond Peak",73.2
"USW00013891",54.2,129,35.8181,-83.9858,293.2,"TN","KNOXVILLE MCGHEE TYSON AP",64.3
"USS0022G24S",54.1,130,42.53,-122.18,1810.5,"OR","Cold Springs Camp",45.9
"US1INOW0009",54.1,131,39.1858,-86.7782,235.9,"IN","SPENCER 7.0 S",65.1
"USC00166584",54,132,31.8142,-93.0856,43,"LA","NATCHITOCHES #2",60.8
"USC00450482",53.9,133,45.7717,-122.5286,86.6,"WA","BATTLE GROUND",40.6
"USS0010G23S",53.8,134,42.82,-110.84,2554.2,"WY","Willow Creek",51.9
"USW00003816",53.8,135,37.0683,-88.7719,119.5,"KY","PADUCAH",70.3
"US1INWK0005",53.8,136,38.0805,-87.2758,143,"IN","BOONVILLE 2.4 N",66.5
"USC00382735",53.8,137,32.6072,-80.3258,3.7,"SC","EDISTO IS MIDDLETON PLANTATION",58.1
"USW00013963",53.7,138,34.7272,-92.2389,78.6,"AR","LITTLE ROCK AP ADAMS FLD",60.5
"USW00003812",53.6,139,35.4319,-82.5375,645.3,"NC","ASHEVILLE RGNL AP",57.2
"USC00065445",53.5,140,41.9725,-73.2208,408.4,"CT","NORFOLK 2 SW",53.3
"USC00190736",53.4,141,42.2122,-71.1136,190.5,"MA","BLUE HILL",57.2
"USW00013897",53.2,142,36.1189,-86.6892,182.9,"TN","NASHVILLE INTL AP",64.3
"USW00093808",53.1,143,36.9647,-86.4239,160.9,"KY","BOWLING GREEN WARREN CO AP",62.1
"USW00012918",52.9,144,29.6381,-95.2819,13.4,"TX","HOUSTON HOBBY AP",55.1
"USS0010F30S",52.9,145,43.78,-110.93,2822.4,"WY","Grand Targhee",49.6
"USC00195984",52.8,146,41.9928,-71.1667,29,"MA","NORTON W",58.8
"USS0018D19S",52.3,147,45.7,-118.11,1499.6,"OR","High Ridge",47.1
"USW00093821",52.2,148,38.1811,-85.7392,148.7,"KY","LOUISVILLE INTL AP",53.3
"USC00171131",52.2,149,43.2242,-70.6389,46.3,"ME","CAPE NEDDICK",57.8
"USC00443375",52.1,150,37.6183,-79.4358,224.6,"VA","GLASGOW 1 SE",48.7
"USW00024227",52.1,151,46.9733,-122.9033,57.3,"WA","OLYMPIA AP",37.1
"US1NCWK0013",52.1,152,35.8624,-78.5665,103.9,"NC","RALEIGH 5.9 ENE",50.2
"USC00185934",52,153,39.7194,-76.8028,262.1,"MD","MILLERS 4 NE",48.2
"USC00193624",52,154,42.2269,-70.9125,10.7,"MA","HINGHAM",62.3
"USS0010E09S",51.9,155,44.21,-110.67,2392.7,"WY","Lewis Lake Divide",51.4
"USS0010D35S",51.8,156,45.89,-110.94,2231.1,"MT","Brackett Creek",51.1
"USW00013737",51.8,157,36.9033,-76.1922,9.1,"VA","NORFOLK INTL AP",46.2
"USS0022G13S",51.7,158,42.41,-122.27,1609.3,"OR","Billie Creek Divide",47.1
"US1NCNS0002",51.6,159,35.9713,-78.0134,68.3,"NC","NASHVILLE 3.2 W",48
"USS0015A03S",51.6,160,48.97,-115.95,1966,"MT","Hawkins Lake",40.4
"USC00448192",51.5,161,36.7297,-76.6014,6.7,"VA","SUFFOLK LAKE KILBY",49.8
"USW00003870",51.5,162,34.8831,-82.2203,286.5,"SC","GREER",51.9
"USW00012843",51.4,163,27.6531,-80.2428,8.5,"FL","VERO BEACH INTL AP",49.8
"USC00173862",51.3,164,43.6475,-70.675,92.7,"ME","HOLLIS",53.5
"USS0019L43S",51.3,165,38.68,-119.96,2443.6,"CA","Forestdale Creek",63.3
"USW00013874",51.2,166,33.63,-84.4417,307.8,"GA","ATLANTA HARTSFIELD INTL AP",43.8
"US1DENC0002",51.1,167,39.6249,-75.7861,33.8,"DE","NEWARK 3.9 SSW",51.6
"USW00012960",51.1,168,29.98,-95.36,29,"TX","HOUSTON INTERCONT AP",52
"USC00360868",51,169,41.8981,-78.7144,506,"PA","BRADFORD 4SW RSCH 5",54.4
"USW00014737",50.9,170,40.6508,-75.4492,118.9,"PA","ALLENTOWN INTL AP",60.7
"USS0022G12S",50.8,171,42.44,-122.23,1819.7,"OR","Fourmile Lake",48.8
"USW00094728",50.8,172,40.7789,-73.9692,39.6,"NY","NEW YORK CNTRL PK TWR",53.1
"USW00013895",50.6,173,32.2997,-86.4075,61.6,"AL","MONTGOMERY AP",47.7
"USC00368361",50.6,174,41.8161,-80.425,306.3,"PA","SPRINGBORO 3 WNW",51
"USW00094746",50.6,175,42.2706,-71.8731,304.8,"MA","WORCESTER RGNL AP",54.8
"USS0009E11S",50.5,176,44.65,-109.78,2804.2,"WY","Evening Star",47.8
"USW00012834",50.4,177,29.1828,-81.0483,9.4,"FL","DAYTONA BEACH INTL AP",59
"USS0022F18S",50.3,178,43.19,-122.14,1609.3,"OR","Diamond Lake",44.9
"USC00091500",50.2,179,31.1903,-84.2036,53.3,"GA","CAMILLA 3SE",43
"USW00013873",50.1,180,33.9481,-83.3275,239.3,"GA","ATHENS BEN EPPS AP",46.3
"USC00175736",50,181,44.6353,-70.0003,146.3,"ME","NEW SHARON",51.5
"US1DENC0010",49.9,182,39.7256,-75.6488,20.7,"DE","NEWPORT 2.4 WNW",48.4
"USS0013C01S",49.9,183,47,-113.93,2255.5,"MT","Stuart Mountain",44.4
"USS0015B02S",49.9,184,47.46,-115.71,1566.7,"ID","Lookout",37.8
"USW00093718",49.9,185,33.8117,-78.7239,9.8,"SC","N MYRTLE BCH AP",56
"USW00012816",49.9,186,29.6919,-82.2756,37.5,"FL","GAINESVILLE RGNL AP",49.7
"USC00178817",49.8,187,44.2822,-70.2561,172.2,"ME","TURNER",51.4
"USC00361810",49.8,188,41.7392,-77.9711,655.3,"PA","COUDERSPORT 7SE",55.4
"USC00387687",49.7,189,34.6111,-82.7269,233.2,"SC","SANDY SPRINGS 2 NE",41.8
"USW00012815",49.7,190,28.4339,-81.325,27.4,"FL","ORLANDO INTL AP",48
"US1FLLK0003",49.7,191,28.565,-81.824,34.1,"FL","GROVELAND 1.7 E",48.6
"US1NHMR0006",49.7,192,43.52,-71.819,285,"NH","DANBURY 2.2 ESE",49.9
"US1INDV0001",49.6,193,38.6754,-87.19,145.1,"IN","WASHINGTON 1.5 NW",62
"USC00170409",49.6,194,43.9317,-69.8564,7.6,"ME","BATH",54.4
"USW00093730",49.5,195,39.4494,-74.5672,18.3,"NJ","ATLANTIC CITY INTL AP",44.9
"USW00013889",49.5,196,30.4844,-81.7019,10.1,"FL","JACKSONVILLE",46.4
"USC00172048",49.4,197,43.9997,-70.0964,42.7,"ME","DURHAM",52.7
"USC00300321",49.4,198,42.9328,-76.5447,234.7,"NY","AUBURN",50.5
"USS0014A11S",49.3,199,48.91,-114.77,1310.6,"MT","Grave Creek",35.5
"USW00014764",49.3,200,43.6497,-70.3003,13.7,"ME","PORTLAND INTL JETPORT",52.2
"USW00093814",49.3,201,39.0431,-84.6717,264.9,"KY","CINCINNATI NORTHERN KY AP",52.8
"USC00317845",49.2,202,35.3111,-81.5708,249.9,"NC","SHELBY 2 NW",52.6
"USW00093842",49.2,203,32.5161,-84.9422,119.5,"GA","COLUMBUS METRO AP",49
"USW00012838",49.1,204,28.1011,-80.6439,8.2,"FL","MELBOURNE INTL AP",55.7
"USW00003860",49.1,205,38.365,-82.555,251.2,"WV","HUNTINGTON TRI STATE AP",49.4
"USW00014765",48.9,206,41.7219,-71.4325,18.3,"RI","PROVIDENCE T F GREEN AP",52
"USC00353971",48.9,207,44.3525,-122.7842,185.9,"OR","HOLLEY",43.1
"USS0014C13S",48.9,208,46.14,-114.45,1706.9,"MT","Twelvemile Creek",42.7
"USW00014711",48.7,209,40.1936,-76.7633,95.1,"PA","MIDDLETOWN HARRISBURG INTL AP",47.9
"USS0010D10S",48.7,210,45.87,-110.93,1996.4,"MT","Sacajawea",48.1
"USC00367732",48.7,211,39.8958,-76.3947,59.4,"PA","SAFE HARBOR DAM",49.1
"USC00317202",48.6,212,36.3797,-79.6944,271.3,"NC","REIDSVILLE 2 NW",49.7
"USW00014734",48.5,213,40.6825,-74.1694,2.1,"NJ","NEWARK INTL AP",58.6
"USW00013722",48.5,214,35.8922,-78.7819,126.8,"NC","RALEIGH DURHAM INTL AP",43
"USW00053860",48.3,215,30.3361,-81.5147,12.5,"FL","JACKSONVILLE CRAIG MUNI AP",47.6
"USW00014740",48.3,216,41.9381,-72.6825,57.9,"CT","HARTFORD BRADLEY INTL AP",52.5
"USS0013A26S",48.3,217,48.3,-113.33,1807.5,"MT","Pike Creek",46.5
"USC00319675",48.2,218,36.1306,-80.5481,266.7,"NC","YADKINVILLE 6 E",47
"USC00235027",48.2,219,37.3908,-93.9492,328.3,"MO","LOCKWOOD",60.5
"USW00013939",48.2,220,33.4825,-90.9853,39,"MS","GREENVILLE ASOS",78.2
"USW00013866",48.2,221,38.3794,-81.59,277.4,"WV","CHARLESTON YEAGER AP",46.9
"US1INHN0011",48.2,222,39.937,-85.9,259.1,"IN","MCCORDSVILLE 2.6 NE",50.5
"USC00314996",48.2,223,35.4606,-81.3297,270.4,"NC","LINCOLNTON 4 W",53.9
"USC00406534",48.2,224,35.9833,-83.2008,315.8,"TN","NEWPORT 1 NW",57.6
"USW00013739",48.1,225,39.8683,-75.2311,3,"PA","PHILADELPHIA INTL AP",47.5
"USW00013957",48,226,32.4506,-93.8411,83.2,"LA","SHREVEPORT",42.9
"USW00013964",48,227,35.3331,-94.3625,136.9,"AR","FT SMITH RGNL AP",67.5
"USC00446475",48,228,37.5844,-75.8217,9.1,"VA","PAINTER 2 W",46.4
"USS0006H10S",48,229,41.15,-106.97,3048,"WY","Old Battle",50.1
"USW00003962",47.9,230,34.29,-93.06,163.1,"AR","HOT SPRINGS ASOS",52.4
"USS0021C28S",47.7,231,46.64,-121.38,1353.3,"WA","White Pass E.S.",33.8
"USW00093987",47.7,232,31.2361,-94.7544,87.8,"TX","LUFKIN ANGELINA CO AP",41.7
"US1NCGL0008",47.6,233,36.1515,-79.7968,242.3,"NC","GREENSBORO 5.3 NNE",51.8
"USW00013786",47.6,234,36.2606,-76.175,4,"NC","ELIZABETH CITY CGAS",55
"USS0006J19S",47.6,235,40.79,-106.6,2846.8,"CO","Zirkel",49.8
"USW00013781",47.5,236,39.6728,-75.6008,24.1,"DE","WILMINGTON NEW CASTLE CO AP",48
"USW00012923",47.4,237,29.2733,-94.8592,1.5,"TX","GALVESTON SCHOLES FLD",59.3
"USW00093721",47.3,238,39.1667,-76.6833,47.5,"MD","BALTIMORE WASH INTL AP",38.2
"US1ILSC0003",47.3,239,38.5096,-89.9711,157.9,"IL","BELLEVILLE 2.2 SE",54.8
"USC00193276",47.3,240,42.7467,-71.0425,9.1,"MA","GROVELAND",50.2
"USS0015D06S",47.2,241,45.7,-115.23,1938.5,"ID","Mountain Meadows",45.9
"USS0013A27S",47.1,242,48.8,-113.67,1493.5,"MT","Many Glacier",40.9
"USS0009C01S",47,243,46.79,-109.51,1844,"MT","Crystal Lake",41.5
"USS0015E02S",46.9,244,44.63,-115.79,2005.6,"ID","Big Creek Summit",42.9
"USW00093720",46.9,245,38.3406,-75.5103,14.6,"MD","SALISBURY WICOMICO RGNL AP",36.9
"USC00272302",46.9,246,42.8267,-71.6261,73.2,"NH","E MILFORD",45.7
"USS0017D02S",46.8,247,45.21,-117.19,2255.5,"OR","Aneroid Lake #2",43
"USS0021B62S",46.7,248,47.07,-121.59,685.8,"WA","Huckleberry Creek",33.8
"USW00003822",46.7,249,32.13,-81.21,14,"GA","SAVANNAH INTL AP",51.4
"USW00004781",46.7,250,40.7939,-73.1017,25.6,"NY","ISLIP LI MACARTHUR AP",48.8
"USS0013D19S",46.6,251,45.17,-113.58,2621.3,"MT","Darkhorse Lake",36.5
"USC00190120",46.6,252,42.3861,-72.5375,44.2,"MA","AMHERST",45
"USC00351897",46.5,253,43.7917,-123.0275,181.4,"OR","COTTAGE GROVE 2E",42.2
"USS0006H20S",46.5,254,41.33,-106.38,3087.6,"WY","North French Creek",43.6
"US1MOFSA065",46.5,255,37.6605,-91.5535,344.1,"MO","SALEM 1.8 NW",53.9
"USC00237263",46.3,256,37.9567,-91.7761,357.5,"MO","ROLLA MISSOURI S&T",50.5
"USC00313555",46.3,257,36.0503,-79.3728,201.2,"NC","GRAHAM 2 ENE",52.4
"US1ILWL0051",46.2,258,41.5819,-88.1937,181.1,"IL","PLAINFIELD 2.4 SSE",63.7
"USW00013877",46.1,259,36.4731,-82.4044,457.2,"TN","BRISTOL TRI CITY AP",56
"USS0006H26S",46.1,260,41.06,-106.71,2993.1,"WY","Blackhall Mtn",47.4
"USW00014732",46.1,261,40.7794,-73.8803,3.4,"NY","NEW YORK LAGUARDIA AP",50.9
"USW00014778",46,262,41.2433,-76.9217,158.5,"PA","WILLIAMSPORT",48.7
"USS0017D08S",45.9,263,45,-117.17,1645.9,"OR","Schneider Meadows",52.6
"USS0011G32S",45.8,264,42.05,-111.6,2490.2,"ID","Franklin Basin",47.3
"USW00013741",45.8,265,37.3169,-79.9742,358.1,"VA","ROANOKE RGNL AP",42.6
"USW00013971",45.8,266,36.2667,-93.1567,418.8,"AR","HARRISON BOONE CO AP",57
"USS0022G14S",45.8,267,42.38,-122.35,1420.4,"OR","Fish Lk.",41.4
"USC00274234",45.7,268,42.7831,-71.4147,56.4,"NH","HUDSON 1 SSE",52.6
"USW00003813",45.7,269,32.6847,-83.6528,104.5,"GA","MACON MIDDLE GA RGNL AP",44.6
"USW00013723",45.7,270,36.0969,-79.9433,271.3,"NC","PIEDMONT TRIAD INTL AP",52
"USC00368469",45.6,271,41.4039,-78.0183,284.1,"PA","STEVENSON DAM",54.7
"USW00004725",45.6,272,42.1997,-75.985,489.5,"NY","BINGHAMTON",44
"USC00307705",45.6,273,42.6772,-75.5067,333.8,"NY","SHERBURNE",44
"USW00013740",45.6,274,37.505,-77.3203,50,"VA","RICHMOND INTL AP",42.9
"USW00014860",45.6,275,42.08,-80.1825,222.5,"PA","ERIE INTL AP",40.4
"USS0007K11S",45.6,276,39.02,-107.05,3261.4,"CO","Schofield Pass",50.4
"USC00128784",45.5,277,40.2233,-86.1086,271.3,"IN","TIPTON 5 SW",40.4
"USS0005J37S",45.5,278,40.53,-105.89,3084.6,"CO","Joe Wright",44.7
"USW00013883",45.5,279,33.9486,-81.1186,70.4,"SC","COLUMBIA",42.3
"USS0006J09S",45.5,280,40.37,-106.74,2865.1,"CO","Rabbit Ears",46.1
"USW00094702",45.5,281,41.1583,-73.1289,1.5,"CT","BRIDGEPORT SIKORSKY MEM AP",51.1
"USC00441955",45.5,282,37.2819,-78.9592,248.4,"VA","CONCORD 4 SSW",45.9
"USS0015C05S",45.4,283,46.49,-115.8,938.8,"ID","Pierce R.S.",41.4
"US1OHMD0002",45.4,284,41.2498,-81.8133,342,"OH","BRUNSWICK 0.5 NE",43.6
"USW00013736",45.2,285,39.6428,-79.9164,378,"WV","MORGANTOWN HART FLD",45.1
"USC00444148",45.2,286,37.1258,-79.525,273.4,"VA","HUDDLESTON 4 SW",47.9
"USW00094789",45.1,287,40.6386,-73.7622,3.4,"NY","NEW YORK JFK INTL AP",52
"USW00013995",45.1,288,37.2353,-93.4003,389.5,"MO","SPRINGFIELD",54.5
"USW00013881",45.1,289,35.2236,-80.9553,221.9,"NC","CHARLOTTE DOUGLAS AP",54.1
"USW00003872",45.1,290,37.7836,-81.1231,766.3,"WV","BECKLEY RALEIGH CO AP",44.1
"USW00093739",45.1,291,37.9406,-75.4631,11.6,"VA","WALLOPS ISLAND FLIGHT FAC",46.7
"USW00014852",45,292,41.2544,-80.6739,359.7,"OH","YOUNGSTOWN RGNL AP",49.8
"USW00093846",44.9,293,34.4978,-82.7097,231.6,"SC","ANDERSON CO AP",39.4
"USC00125407",44.8,294,39.4039,-86.453,180.4,"IN","MARTINSVILLE 2 SW",52.5
"USS0006H22S",44.7,295,41,-106.91,2728,"WY","Whiskey Park",46.2
"US1OHFR0003",44.6,296,39.981,-83.0401,234.1,"OH","GRANDVIEW HEIGHTS 0.1 N",42.2
"USS0017D18S",44.6,297,45.27,-117.17,2411,"OR","Mt. Howard",43.6
"USC00369408",44.5,298,41.7003,-77.3872,554.1,"PA","WELLSBORO 4 SW",47.8
"USC00330279",44.5,299,39.3225,-82.0994,208.5,"OH","ATHENS OU",52.1
"USC00367409",44.5,300,41.33,-77.7381,201.2,"PA","RENOVO",47.4
"USW00003901",44.5,301,32.3847,-94.7117,111.3,"TX","LONGVIEW E TX RGNL AP",48.3
"USS0019L41S",44.5,302,38.72,-119.89,2477.7,"CA","Burnside Lake",58.4
"USW00014895",44.4,303,40.9167,-81.4333,368.2,"OH","AKRON CANTON RGNL AP",44.3
"USW00014820",44.3,304,41.4131,-81.86,232.6,"OH","CLEVELAND",40
"USS0011J12S",44.2,305,40.97,-111.81,2066.2,"UT","Farmington Lower",59.7
"USW00093819",44.2,306,39.7075,-86.2803,240.8,"IN","INDIANAPOLIS",47.2
"USC00117457",44.2,307,41.6042,-88.085,201.2,"IL","ROMEOVILLE WFO",56.8
"USW00013994",44.1,308,38.7525,-90.3736,161.8,"MO","ST LOUIS LAMBERT INTL AP",54
"USS0014F04S",44,309,43.8,-114.85,2731,"ID","Vienna Mine",42.3
"USW00014607",44,310,46.8706,-68.0172,190.2,"ME","CARIBOU MUNI AP",41.6
"USC00360132",44,311,40.4189,-78.4197,359.7,"PA","ALTOONA 7 SW",44.8
"USW00014739",44,312,42.3606,-71.0106,3.7,"MA","BOSTON LOGAN INTL AP",50.4
"US1OHPT0012",43.9,313,41.0085,-81.329,357.8,"OH","MOGADORE 4.7 SE",51.9
"USC00440766",43.9,314,37.2039,-80.4144,641,"VA","BLACKSBURG NWSO",42.7
"USC00368449",43.8,315,40.7933,-77.8672,356.6,"PA","STATE COLLEGE",41.5
"USC00441159",43.7,316,37.7267,-79.3628,256,"VA","BUENA VISTA",43.2
"USW00014821",43.7,317,39.9914,-82.8808,246.9,"OH","COLUMBUS PORT COLUMBUS INTL AP",44
"USC00231801",43.6,318,38.9425,-92.3206,219.5,"MO","COLUMBIA U OF M",46.5
"USS0010F23S",43.6,319,43.52,-110.91,2499.4,"WY","Phillips Bench",45.3
"USW00093738",43.6,320,38.9408,-77.4636,88.4,"VA","WASHINGTON DC DULLES AP",40.8
"USW00014891",43.5,321,40.8203,-82.5178,394.7,"OH","MANSFIELD LAHM MUNI AP",47.9
"USW00004751",43.5,322,41.8031,-78.6403,645.3,"PA","BRADFORD RGNL AP",44.8
"US1MDAL0002",43.5,323,39.5768,-78.8498,230.1,"MD","CRESAPTOWN-BEL AIR 0.9 SSE",43
"USW00014745",43.4,324,43.1953,-71.5011,105.5,"NH","CONCORD MUNI AP",45.2
"US1ILGY0001",43.4,325,41.3414,-88.2981,160,"IL","CARBON HILL 3.1 N",60.3
"USS0019L05S",43.2,326,38.61,-119.92,2455.8,"CA","Blue Lakes",59.1
"USS0010E06S",43.1,327,44.48,-110.16,2566.4,"WY","Sylvan Lake",43
"USW00013878",43.1,328,31.1522,-81.3908,4.9,"GA","BRUNSWICK MALCOLM MCKINNON AP",44.4
"USW00013733",43.1,329,37.3208,-79.2067,286.5,"VA","LYNCHBURG RGNL AP",39.1
"USS0019L45S",42.9,330,38.69,-119.99,2546,"CA","Carson Pass",56.5
"USC00211198",42.8,331,43.6308,-91.5028,355.4,"MN","CALEDONIA",47.9
"USC00315356",42.7,332,35.8033,-82.6658,585.2,"NC","MARSHALL",47.3
"US1ILWD0005",42.6,333,41.816,-89.904,224,"IL","MORRISON 3.2 E",56.1
"USS0008M10S",42.6,334,37.44,-108.02,3287.3,"CO","Columbus Basin",56
"USW00014606",42.6,335,44.7978,-68.8186,45.1,"ME","BANGOR INTL AP",52
"USW00003820",42.5,336,33.3644,-81.9633,40.2,"GA","AUGUSTA BUSH FLD AP",50.9
"USW00094823",42.5,337,40.4847,-80.2144,366.7,"PA","PITTSBURGH INTL AP",52.5
"USW00013743",42.4,338,38.8483,-77.0342,3,"VA","WASHINGTON REAGAN AP",42.4
"USC00437054",42.4,339,44.42,-72.0194,213.4,"VT","SAINT JOHNSBURY",47.5
"USC00369823",42.4,340,40.0394,-78.5239,361.2,"PA","WOLFSBURG",47
"USS0006H23S",42.3,341,41.46,-106.28,3063.2,"WY","Sand Lake",42.1
"USS0009E13S",42.3,342,44.38,-109.79,2980.9,"WY","Blackwater",42.7
"US1ILCN0003",42.2,343,39.4736,-89.0462,195.1,"IL","PANA 6.2 NNE",51.5
"USC00442044",42.1,344,37.8111,-79.9883,379.2,"VA","COVINGTON FLTR PLT",38.2
"USC00474790",42.1,345,43.3217,-89.5311,251.2,"WI","LODI",52.8
"USW00024233",42.1,346,47.4444,-122.3139,112.8,"WA","SEATTLE TACOMA INTL AP",33.9
"USC00464840",42,347,39.4214,-79.005,294.1,"WV","KEYSER 2 SSW",39.5
"USS0020L02S",41.9,348,39,-120.13,2343.6,"CA","Rubicon #2",52.6
"USS0011D11S",41.9,349,45.51,-111.92,2407.9,"MT","Lower Twin",39
"USS0007M11S",41.8,350,37.7,-107.78,3249.2,"CO","Spud Mountain",58
"USW00014733",41.6,351,42.9486,-78.7369,211.2,"NY","BUFFALO",47.8
"USW00094860",41.6,352,42.8939,-85.5447,237.1,"MI","GRAND RAPIDS",51.4
"USW00093815",41.5,353,39.9061,-84.2186,304.8,"OH","DAYTON INTL AP",43
"USW00094908",41.5,354,42.3978,-90.7036,321.9,"IA","DUBUQUE RGNL AP",54.9
"USS0011C01S",41.5,355,46.56,-111.29,2423.2,"MT","Boulder Mountain",36.4
"USS0011E31S",41.5,356,44.59,-111.12,2362.2,"MT","Madison Plateau",45.3
"USC00304996",41.4,357,44.8419,-74.3081,268.2,"NY","MALONE",41.4
"USW00094846",41.4,358,41.995,-87.9336,200.6,"IL","CHICAGO OHARE INTL AP",49.6
"USC00115961",41.2,359,42.2553,-88.0775,256,"IL","MUNDELEIN 4 WSW",54.2
"USS0009D08S",41.2,360,45.05,-109.91,2651.8,"MT","White Mill",36.3
"USW00003904",41.2,361,30.5892,-96.3647,93,"TX","COLLEGE STN",36.3
"US1OHSN0003",41.1,362,41.0589,-83.1127,254.2,"OH","TIFFIN 5.2 SE",45.8
"USW00024213",41.1,363,40.8097,-124.1603,6.1,"CA","EUREKA WFO WOODLEY ISLAND",44
"USW00003947",41.1,364,39.2972,-94.7306,306.3,"MO","KANSAS CITY INTL AP",53.2
"USW00014827",41.1,365,40.9706,-85.2064,241.1,"IN","FT WAYNE INTL AP",39.1
"USW00014842",41.1,366,40.6675,-89.6839,198.1,"IL","PEORIA GTR PEORIA AP",50.8
"USS0021D12S",41.1,367,45.19,-121.69,1161.3,"OR","Clear Lake",33.9
"US1IASR0002",41.1,368,42.0448,-93.6174,298.1,"IA","AMES 1.5 NNE",40.1
"US1MIIN0001",41,369,42.9576,-85.1738,203.3,"MI","SARANAC 2.6 NE",49.9
"USS0012B14S",41,370,47.08,-112.73,2118.4,"MT","Copper Camp",41.4
"USS0007K12S",41,371,39.76,-107.36,3316.2,"CO","Bison Lake",47.6
"USC00476827",40.9,372,43.0514,-91.135,200.6,"WI","PRAIRIE DU CHIEN",52.3
"USS0005K14S",40.9,373,39.8,-105.78,3444.2,"CO","Berthoud Summit",38.4
"USS0020K27S",40.9,374,39.17,-120.15,2071.7,"CA","Tahoe City Cross",53.9
"USW00014605",40.9,375,44.3206,-69.7972,106.7,"ME","AUGUSTA STATE AP",42.9
"USC00474937",40.8,376,43.2117,-91.0986,192.9,"WI","LYNXVILLE DAM 9",54.8
"USC00476718",40.7,377,43.5278,-89.4342,236.2,"WI","PORTAGE",47.3
"US1VASH0002",40.7,378,39.0422,-78.3506,226.2,"VA","STRASBURG 3.7 N",40.5
"USW00024232",40.7,379,44.905,-123.0011,62.5,"OR","SALEM MCNARY FLD",30.9
"USC00114710",40.6,380,41.2428,-89.8997,237.7,"IL","KEWANEE 1 E",50.9
"USS0013C43S",40.5,381,46.27,-113.16,2377.4,"MT","Warm Springs",31.2
"USW00093822",40.5,382,39.8447,-89.6839,181.1,"IL","SPRINGFIELD CAPITAL AP",49.4
"USS0011D28S",40.5,383,45.6,-111.96,2529.8,"MT","Albro Lake",40.7
"USC00478540",40.5,384,43.4719,-88.8825,267.9,"WI","TOWN OF WESTFORD",48.3
"USS0009E07S",40.4,385,44.73,-109.91,2865.1,"WY","Parker Peak",40.6
"USW00013972",40.4,386,32.3542,-95.4025,165.8,"TX","TYLER POUNDS FLD",42.6
"US1OHDR0001",40.4,387,40.1526,-84.4613,303.9,"OH","BRADFORD 2.3 NW",42.2
"USC00436995",40.4,388,43.6253,-72.9781,189,"VT","RUTLAND",45.7
"USC00208774",40.3,389,44.2294,-85.9572,235.6,"MI","WELLSTON 1N",51.8
"USS0010D12S",40.3,390,45.22,-110.24,2697.5,"MT","Monument Peak",41.2
"US1OHSM0005",40.3,391,41.1623,-81.5037,303,"OH","CUYAHOGA FALLS 1.1 ESE",44.8
"USC00231580",40.2,392,39.775,-93.5358,237.7,"MO","CHILLICOTHE 2S",55.4
"USS0005J40S",40.2,393,40.43,-105.73,3261.4,"CO","Willow Park",40.6
"USC00336405",40.2,394,40.9461,-83.9614,234.7,"OH","PANDORA",44.3
"USS0007M33S",40.2,395,37.89,-107.71,3413.8,"CO","Red Mountain Pass",46.7
"USS0006H09S",39.9,396,41.16,-106.93,2819.4,"WY","Webber Springs",43.8
"USW00013870",39.9,397,31.5358,-82.5067,58.8,"GA","ALMA BACON CO AP",34.2
"USS0007K06S",39.9,398,39.05,-107.87,3035.8,"CO","Park Reservoir",48.3
"USW00094290",39.8,399,47.6872,-122.2553,18.3,"WA","SEATTLE SAND PT WSFO",31.3
"USS0006J03S",39.8,400,40.39,-106.6,2792,"CO","Columbine",42.1
"US1INEL0008",39.8,401,41.5655,-85.9933,256,"IN","WAKARUSA 2.4 NNE",42.9
"USW00014923",39.8,402,41.4653,-90.5233,180.4,"IL","MOLINE QUAD CITY INTL AP",49.6
"USW00014742",39.8,403,44.4683,-73.15,100.6,"VT","BURLINGTON INTL AP",43.5
"USW00012836",39.7,404,24.555,-81.7522,1.2,"FL","KEY WEST INTL AP",35.4
"USC00470124",39.7,405,44.3272,-91.9194,204.2,"WI","ALMA DAM 4",52.8
"USW00014837",39.6,406,43.1406,-89.3453,264,"WI","MADISON DANE RGNL AP",46.4
"USC00471078",39.6,407,42.6333,-89.3867,240.8,"WI","BRODHEAD",50.1
"USC00200230",39.6,408,42.2981,-83.6639,247.8,"MI","ANN ARBOR U OF MICH",45.5
"US1IAWB0005",39.5,409,42.6426,-94.1879,338,"IA","BADGER 3.1 NW",40.2
"USW00094822",39.3,410,42.1928,-89.0931,222.5,"IL","ROCKFORD GTR ROCKFORD AP",49.4
"USC00472973",39.3,411,43.975,-89.8308,288,"WI","FRIENDSHIP",50.1
"USC00200758",39.2,412,44.5317,-86.1311,235.6,"MI","BEULAH 7SSW",42.7
"USS0011G06S",39.1,413,42.36,-111.56,2252.5,"ID","Emigrant Summit",42.1
"USS0010G20S",39.1,414,42.53,-110.66,2743.2,"WY","Spring Creek Divide",33.8
"USC00200228",39,415,42.2417,-83.6933,253.6,"MI","ANN ARBOR SE",44.9
"USW00014933",39,416,41.5339,-93.6531,291.7,"IA","DES MOINES INTL AP",49.4
"USC00115079",39,417,40.1519,-89.3386,177.7,"IL","LINCOLN",45.7
"USW00014840",39,418,43.1711,-86.2367,190.5,"MI","MUSKEGON CO AP",48
"USS0015A08S",39,419,48.57,-115.45,1706.9,"MT","Banfield Mountain",30.1
"USC00475581",38.9,420,43.7806,-89.3169,239.6,"WI","MONTELLO",48.4
"USC00470045",38.9,421,42.6475,-89.0644,226.2,"WI","AFTON",49.9
"USC00203096",38.8,422,45.0333,-84.7114,401.7,"MI","GAYLORD",47.3
"USW00024152",38.8,423,45.5114,-118.4247,1134.8,"OR","MEACHAM",35.5
"USW00012935",38.8,424,28.7247,-96.2536,3.7,"TX","PALACIOS MUNI AP",37.7
"USW00013968",38.8,425,36.1994,-95.8872,198.1,"OK","TULSA INTL AP",59.6
"USC00118684",38.8,426,39.7947,-88.2911,198.4,"IL","TUSCOLA",44.1
"USC00476200",38.7,427,43.1003,-88.5036,260.9,"WI","OCONOMOWOC",41.9
"USC00470265",38.7,428,44.2769,-88.4378,241.4,"WI","APPLETON",49
"USC00043578",38.6,429,38.4306,-122.8647,61,"CA","GRATON",45
"USW00013960",38.5,430,32.8519,-96.8556,134.1,"TX","DALLAS LOVE FLD",39.6
"USS0010J52S",38.5,431,40.68,-110.95,3045.6,"UT","Trial Lake",45.1
"USW00014920",38.5,432,43.8789,-91.2528,198.7,"WI","LA CROSSE MUNI AP",44.7
"USW00024229",38.4,433,45.5908,-122.6003,5.8,"OR","PORTLAND INTL AP",26.7
"USC00331042",38.4,434,41.4619,-84.5272,222.5,"OH","BRYAN 2 SE",47.3
"US1IAGT0001",38.4,435,41.7991,-94.3093,321,"IA","JAMAICA 3.2 S",37.2
"USS0011J69S",38.3,436,40.83,-111.76,2042.2,"UT","Louis Meadow",44.7
"USW00014897",38.2,437,44.9258,-89.6256,360,"WI","WAUSAU DWTN AP",48.1
"USC00368868",38.1,438,41.8975,-77.1419,374.9,"PA","TIOGA HAMMOND DAM",39.3
"USS0011H01S",38,439,41.97,-111.6,2209.8,"UT","Klondike Narrows",38.2
"USC00142401",38,440,37.8183,-96.8444,393.2,"KS","EL DORADO",53.1
"USW00094910",38,441,42.5544,-92.4011,264.6,"IA","WATERLOO MUNI AP",41.9
"USS0019L24S",38,442,38.92,-119.92,2615.8,"CA","Heavenly Valley",44.9
"USW00013967",38,443,35.3889,-97.6006,391.7,"OK","OKLAHOMA CITY WILL ROGERS AP",45.4
"USS0011P08S",38,444,35.34,-111.65,2965.7,"AZ","Snowslide Canyon",45.4
"USS0020K13S",38,445,39.3,-120.18,1983.9,"CA","Truckee #2",51.5
"USS0014B05S",37.8,446,47.18,-114.33,1874.5,"MT","Sleeping Woman",37.1
"US1TXCRL003",37.7,447,31.0916,-97.89,311.2,"TX","KEMPNER 6.7 ENE",38.2
"US1OKCV0032",37.7,448,35.1979,-97.4182,353,"OK","NORMAN 2.1 SE",40.5
"USS0008M04S",37.7,449,37.5,-108.11,3267.5,"CO","Sharkstooth",45.7
"USC00361838",37.6,450,41.9903,-77.1567,350.5,"PA","COWANESQUE DAM",42.3
"USS0007J05S",37.6,451,40.11,-107.29,3151.6,"CO","Ripple Creek",47.4
"USW00014847",37.6,452,46.4794,-84.3572,220.1,"MI","SAULT STE MARIE SANDERSON FLD",46.2
"USS0005J10S",37.5,453,40.41,-105.82,3261.4,"CO","Lake Irene",36.1
"USW00094830",37.5,454,41.5886,-83.8014,203.9,"OH","TOLEDO EXPRESS AP",44.6
"USW00014925",37.5,455,43.9042,-92.4917,397.5,"MN","ROCHESTER INTL AP",55.2
"USS0006J08S",37.4,456,40.35,-106.38,3340.6,"CO","Arapaho Ridge",41
"USS0005J08S",37.4,457,40.03,-105.58,3139.4,"CO","University Camp",34.2
"USC00346386",37.4,458,35.1808,-97.4378,343.8,"OK","NORMAN 3SSE",41
"USS0009E10S",37.4,459,44.94,-109.57,2852.9,"WY","Beartooth Lake",40.1
"USS0007M32S",37.4,460,37.71,-107.51,3535.7,"CO","Beartown",43.9
"USC00413285",37.3,461,32.8339,-97.2975,196.3,"TX","FT WORTH WSFO",36.6
"USW00014750",37.3,462,43.35,-73.6167,97.8,"NY","GLENS FALLS AP",44.1
"USW00013958",37.3,463,30.3208,-97.7603,204.2,"TX","AUSTIN-CAMP MABRY",31.9
"USC00130200",37.2,464,42.0208,-93.7742,335,"IA","AMES 8 WSW",36.1
"USS0011E38S",37.2,465,44.95,-111.36,2392.7,"MT","Beaver Creek",37.7
"USC00132171",37.2,466,42.0364,-95.3289,427,"IA","DENISON",35.8
"USS0010E12S",37.2,467,44.13,-110.67,2109.2,"WY","Snake River Station",36.6
"USS0006H24S",37.1,468,41.24,-106.23,2918.2,"WY","Cinnabar Park",38.7
"USW00024221",37.1,469,44.1278,-123.2206,107.6,"OR","EUGENE MAHLON SWEET AP",36.3
"USC00475364",37,470,45.1786,-89.6617,381,"WI","MERRILL",43
"USS0019D02S",37,471,45.19,-119.25,1758.7,"OR","Arbuckle Mtn",38.1
"USS0006H13S",36.9,472,41.36,-106.23,3121.2,"WY","Brooklyn Lake",38.3
"US1KSSG0002",36.9,473,37.6916,-97.4797,416.1,"KS","MAIZE 5.7 S",44.8
"USW00013996",36.8,474,39.0725,-95.6261,267,"KS","TOPEKA MUNI AP",48.8
"USS0020L10S",36.8,475,38.93,-120.05,1900.7,"CA","Fallen Leaf",42
"USW00014991",36.7,476,44.8664,-91.4878,269.7,"WI","EAU CLAIRE RGNL AP",44.1
"USC00410433",36.7,477,30.4144,-97.7664,268.2,"TX","AUSTIN GREAT HILLS",28.9
"USW00013904",36.6,478,30.1831,-97.68,146.3,"TX","AUSTIN BERGSTROM AP",29.1
"USS0019L07S",36.6,479,38.31,-119.6,2690.5,"CA","Sonora Pass",46.1
"USW00094847",36.6,480,42.2314,-83.3308,192.3,"MI","DETROIT METRO AP",36.4
"USS0015H01S",36.6,481,41.83,-115.45,2450.6,"NV","Bear Creek",38
"USS0006J38S",36.5,482,40.82,-106.75,2840.7,"CO","Lost Dog",40.3
"USW00003927",36.5,483,32.8978,-97.0189,170.7,"TX","DALLAS FT WORTH AP",34.5
"USW00014768",36.5,484,43.1167,-77.6767,162.5,"NY","ROCHESTER GTR INTL AP",34.5
"USC00471064",36.4,485,44.1614,-88.0803,246.9,"WI","BRILLION",43.7
"US1KSSG0020",36.4,486,37.6925,-97.4877,417.6,"KS","WICHITA 7.9 W",44
"USC00257545",36.2,487,40.0225,-95.7883,320,"NE","SALEM 5SW",49.1
"USW00013959",36.2,488,31.6189,-97.2283,152.4,"TX","WACO RGNL AP",33
"USS0006J01S",36.2,489,40.53,-106.78,2560.3,"CO","Dry Lake",40.4
"USC00201468",36.1,490,45.3172,-85.2672,180.7,"MI","CHARLEVOIX",40.7
"USW00014898",36.1,491,44.4983,-88.1111,207.9,"WI","GREEN BAY",48.6
"USS0013C03S",36.1,492,46.24,-113.77,2209.8,"MT","Skalkaho Summit",28.9
"USS0020G12S",36,493,42.64,-120.95,1883.7,"OR","Crazyman Flat",34.9
"USC00412585",35.9,494,30.2194,-97.9878,330.4,"TX","DRIPPING SPRINGS 6 E",34.5
"USC00418862",35.8,495,30.5844,-97.4156,174,"TX","TAYLOR 1NW",34.1
"USC00144972",35.8,496,39.1972,-96.5814,323.1,"KS","MANHATTAN",52.8
"USC00253467",35.8,497,41.1586,-96.1922,378,"NE","GRETNA 4NE",43.3
"USS0006M22S",35.8,498,37.02,-106.45,3060.2,"CO","Cumbres Trestle",47.4
"USW00014839",35.8,499,42.955,-87.9044,204.2,"WI","MILWAUKEE MITCHELL AP",46
"USS0005J39S",35.7,500,40.31,-105.64,2895.6,"CO","Bear Lake",35.2
"USS0006K29S",35.7,501,39.86,-106.42,3206.5,"CO","Elliot Ridge",36.3
"US1KSSG0003",35.7,502,37.7248,-97.4786,413.9,"KS","MAIZE 3.4 SSW",41.2
"USS0005R01S",35.5,503,33.4,-105.79,3133.3,"NM","Sierra Blanca",42.3
"USS0010C22S",35.5,504,46.91,-110.85,2258.6,"MT","Onion Park",36.7
"USS0011G05S",35.4,505,42.56,-111.3,2202.2,"ID","Slug Creek Divide",36.5
"USS0019K08S",35.3,506,39.46,-119.94,2514.3,"NV","Big Meadow",45.6
"USS0011D19S",35.3,507,45.27,-111.43,2706.6,"MT","Lone Mountain",34.6
"USC00204161",35.2,508,47.0083,-88.4317,198.1,"MI","JACOBSVILLE",39
"USS0019L08S",35.1,509,38.3,-119.55,2194,"CA","Leavitt Meadows",40.3
"US1SDMH0020",35.1,510,43.5267,-96.6658,462.1,"SD","SIOUX FALLS 3.4 ESE",44.8
"USS0019L03S",35,511,38.85,-119.94,2370.1,"CA","Hagan's Meadow",38.9
"USS0016H04S",35,512,41.53,-116.01,2566.4,"NV","Jacks Peak",38.8
"USS0005K21S",35,513,39.76,-105.91,3169.9,"CO","Jones Pass",32
"USW00013961",35,514,32.8192,-97.3614,209.4,"TX","FT WORTH MEACHAM FLD",31.8
"USC00257800",34.8,515,40.2039,-95.7064,332.2,"NE","SHUBERT 2SW",50.6
"USS0013B25S",34.8,516,47.68,-114,1499.6,"MT","Bisson Creek",30.3
"USC00473930",34.7,517,43.3194,-88.1681,275.2,"WI","JACKSON",48.7
"USC00145132",34.6,518,39.0542,-96.2367,309.4,"KS","MC FARLAND",48.7
"USW00012912",34.6,519,28.8614,-96.9303,35.1,"TX","VICTORIA RGNL AP",25.2
"USS0010C06S",34.5,520,46.78,-110.62,2468.9,"MT","Spur Park",35.1
"USS0006K10S",34.5,521,39.29,-106.55,3169.9,"CO","Ivanhoe",38.3
"USW00003928",34.5,522,37.6544,-97.4425,406.9,"KS","WICHITA",42.1
"USS0020B02S",34.5,523,47.35,-120.68,1292.4,"WA","Blewett Pass",27.7
"USC00258395",34.4,524,40.6661,-96.1892,335.3,"NE","SYRACUSE",38.6
"USW00014922",34.3,525,44.8831,-93.2289,265.8,"MN","MINNEAPOLIS/ST PAUL AP",43.2
"USC00472055",34.3,526,44.3514,-87.812,247.2,"WI","DENMARK WWTP",44.7
"RQC00663532",34.2,527,17.9728,-66.9458,45.7,"PR","ENSENADA 1 W",20.8
"USS0005K05S",34.1,528,39.67,-105.9,3474.7,"CO","Loveland Basin",32.2
"USW00023213",34.1,529,38.5039,-122.8103,34.7,"CA","SANTA ROSA SONOMA CO AP",52
"USS0019L06S",34,530,38.51,-119.63,2357.9,"CA","Poison Flat",40.4
"USS0007M21S",34,531,37.62,-107.03,3429,"CO","Middle Creek",45.6
"USC00253050",33.8,532,41.43,-96.4669,359.7,"NE","FREMONT",40.4
"USS0006J12S",33.8,533,40.88,-106.05,2956.6,"CO","Roach",35.8
"USS0005P08S",33.7,534,35.78,-105.54,3389.4,"NM","Wesner Springs",38.4
"USW00014942",33.7,535,41.3103,-95.8992,299.3,"NE","OMAHA EPPLEY AIRFIELD",40
"USW00014826",33.5,536,42.9667,-83.7494,234.7,"MI","FLINT BISHOP INTL AP",37.4
"USS0018E16S",33.5,537,44.25,-118.52,1789.2,"OR","Blue Mountain Spring",34.9
"USS0005J05S",33.5,538,40.2,-105.6,2913.9,"CO","Wild Basin",33.9
"USS0010J30S",33.4,539,40.58,-110.59,3230.9,"UT","Brown Duck",42.5
"USW00012921",33.3,540,29.5442,-98.4839,240.5,"TX","SAN ANTONIO INTL AP",22.1
"USS0008K04S",33.1,541,39.06,-108.06,3048,"CO","Mesa Lakes",38.2
"USS0006J27S",33.1,542,40.4,-105.96,3133.3,"CO","Never Summer",30.1
"USS0014G02S",33,543,42.18,-114.29,2097,"ID","Magic Mountain",38.8
"USS0011R10S",32.9,544,34.37,-111.01,2417.1,"AZ","Promontory",44.1
"USS0011E30S",32.9,545,44.61,-111.15,2072.6,"MT","Whiskey Creek",38.5
"USC00204090",32.8,546,45.7858,-88.0842,326.4,"MI","IRON MTN-KINGSFORD WWTP",39.3
"USS0019L39S",32.8,547,38.67,-119.82,1863.9,"CA","Spratt Creek",38.4
"USS0018E05S",32.8,548,44.83,-118.19,1783.1,"OR","Bourne",31.3
"USS0005J06S",32.7,549,40.81,-105.77,3115.1,"CO","Deadman Hill",32.8
"USS0013C44S",32.7,550,46.1,-113.13,2514.6,"MT","Barker Lakes",27.8
"USC00250435",32.7,551,40.3706,-95.7469,283.5,"NE","AUBURN 5 ESE",38
"USS0015E08S",32.7,552,44.29,-115.66,1639.8,"ID","Cozy Cove",33.2
"USW00094725",32.6,553,44.9358,-74.8458,65.2,"NY","MASSENA INTL AP",34.3
"USC00141467",32.6,554,37.7206,-97.7936,421.5,"KS","CHENEY 5N",41.4
"USC00415429",32.5,555,29.6756,-97.6578,121.9,"TX","LULING",26.6
"USW00014845",32.5,556,43.5331,-84.0797,201.2,"MI","SAGINAW MBS INTL AP",34.4
"USC00258465",32.5,557,40.3544,-96.1939,338.3,"NE","TECUMSEH 1S",42.7
"USS0013D16S",32.5,558,45.67,-113.95,1889.8,"ID","Moose Creek",28.8
"USS0008M06S",32.5,559,37.79,-108.02,3048,"CO","El Diente Peak",39.3
"USS0008G10S",32.5,560,42.59,-108.9,2956.6,"WY","Deer Park",29.4
"USW00014939",32.3,561,40.8508,-96.7475,362.7,"NE","LINCOLN MUNI AP",36.1
"USW00014913",32.3,562,46.8369,-92.2097,435.3,"MN","DULUTH",34.3
"USC00259200",32.3,563,41.845,-96.7142,399.3,"NE","W PT",31.5
"USW00094849",32.1,564,45.0717,-83.5644,208.5,"MI","ALPENA CO RGNL AP",36.6
"USC00340215",32,565,36.2483,-98.1883,364.2,"OK","AMES",41.7
"USS0010S01S",32,566,33.81,-110.92,2103.1,"AZ","Workman Creek",40.3
"USS0013E18S",32,567,44.44,-113.32,2788.9,"ID","Meadow Lake",31.5
"US1TXWO0010",32,568,29.2829,-98.2456,182.9,"TX","ELMENDORF 5.6 ENE",23.6
"USW00014926",32,569,45.5433,-94.0514,310.3,"MN","ST CLOUD RGNL AP",41.9
"USW00024257",31.9,570,40.5175,-122.2986,151.5,"CA","REDDING MUNI AP",43.1
"USS0005J41S",31.9,571,39.94,-105.59,2956.6,"CO","Lake Eldora",28.4
"USS0007M12S",31.9,572,37.75,-107.69,3200.4,"CO","Molas Lake",41
"USW00094814",31.9,573,44.3592,-84.6739,350.8,"MI","HOUGHTON LK ROSCOMMON AP",38.1
"USC00259513",31.9,574,40.9153,-97.5997,491.6,"NE","YORK 3N",39.6
"USS0007E36S",31.8,575,44.4,-107.06,3005.3,"WY","Cloud Peak Reservoir",30.9
"USS0010J55S",31.7,576,40.84,-110.01,3119.6,"UT","Spirit Lk",35.3
"USW00014943",31.7,577,42.3914,-96.3792,333.8,"IA","SIOUX CITY GATEWAY AP",33.9
"USS0005J42S",31.7,578,40.04,-105.54,3020.6,"CO","Niwot",30.1
"USS0020K04S",31.7,579,39.45,-120.29,2134.5,"CA","Independence Camp",35.2
"USS0005P09S",31.7,580,35.77,-105.78,3488.4,"NM","Santa Fe",36.1
"USS0005K26S",31.5,581,39.57,-105.8,3340.6,"CO","Jackwhacker Gulch",36
"USS0008M07S",31.5,582,37.89,-108.2,2926.1,"CO","Lone Cone",36.2
"USS0011R12S",31.5,583,34.97,-111.51,2590.8,"AZ","Mormon Mtn Summit",36.8
"USS0008L02S",31.4,584,38.42,-108.38,2865.1,"CO","Columbine Pass",40.1
"USS0006K46S",31.4,585,39.26,-106.63,3081.5,"CO","Chapman Tunnel",33.8
"USS0018E03S",31.4,586,44.87,-118.11,1679.4,"OR","Eilertson Meadows",28.9
"USS0007K02S",31.3,587,39.88,-107.6,2865.1,"CO","Burro Mountain",33.7
"USS0007M34S",31.2,588,37.48,-107.63,3413.8,"CO","Stump Lakes",42.1
"USS0011H07S",31.2,589,41.92,-111.47,2348.5,"UT","Garden City Summit",31
"USS0017H08S",31.2,590,41.67,-117.57,2603.9,"NV","Granite Peak",36.2
"USS0011K31S",31.2,591,39.13,-111.44,2874.3,"UT","Buck Flat",35.5
"USS0012D11S",31.2,592,45.41,-112.96,2529.8,"MT","Mule Creek",26.9
"USS0020K03S",31.1,593,39.49,-120.28,1967.8,"CA","Independence Creek",37.2
"USS0007M27S",31.1,594,37.93,-107.68,2987,"CO","Idarado",34.7
"USS0006K01S",31,595,39.36,-106.06,3474.7,"CO","Hoosier Pass",35.1
"USS0007K09S",31,596,39.13,-107.29,2895.6,"CO","Mc Clure Pass",39.1
"USS0010E20S",31,597,44.46,-110.14,2170.2,"WY","Sylvan Road",29.6
"USS0014F12S",30.9,598,43.87,-114.71,2676.1,"ID","Galena Summit",31.6
"USS0006L14S",30.9,599,38.99,-106.75,3243.1,"CO","Upper Taylor",33.5
"USC00148950",30.8,600,38.2936,-97.9114,472.4,"KS","WINDOM 7S",36.8
"USS0005M14S",30.8,601,37.21,-105.12,3115.1,"CO","Whiskey Ck",34.9
"USW00094911",30.7,602,42.8783,-97.3633,359.7,"SD","YANKTON 2 E",34.9
"USC00344019",30.6,603,36.5381,-98.2661,411.5,"OK","HELENA 1 SSE",40.8
"USS0012C11S",30.6,604,46.36,-112.26,2438.4,"MT","Rocker Peak",30.2
"USS0012G17S",30.6,605,42.76,-112.48,1978.2,"ID","Wildhorse Divide",34.2
"US1KSJW0001",30.5,606,39.9421,-97.9872,495.9,"KS","WEBBER 2.6 ENE",39.3
"USS0007E12S",30.5,607,44.72,-107.4,2706.6,"WY","Sucker Creek",33
"USW00014944",30.4,608,43.5878,-96.7289,435.9,"SD","SIOUX FALLS",39.6
"USW00013980",30.4,609,37.155,-98.0283,408.4,"KS","ANTHONY",42.4
"USS0008M02S",30.3,610,37.43,-108.17,3048,"CO","Mancos",29.6
"USS0021C39S",30.3,611,46.36,-121.08,1560.6,"WA","Lost Horse",28.8
"USS0006M21S",30.3,612,37.47,-106.54,3541.8,"CO","Grayback",36.8
"USS0007M05S",30.3,613,37.65,-107.81,2706.6,"CO","Cascade",39.9
"USS0011C02S",30.3,614,46.58,-111.27,2026.9,"MT","Pickfoot Creek",26.6
"USW00012924",30.3,615,27.7839,-97.5108,13.7,"TX","CORPUS CHRISTI",25.6
"USS0010E07S",30.1,616,44.37,-110.58,2432.3,"WY","Thumb Divide",29.6
"USC00252037",30.1,617,42.7364,-97.4969,426.7,"NE","CROFTON",33.2
"USS0012B13S",30.1,618,47.92,-112.79,1706.9,"MT","Waldron",31.1
"USS0006J15S",30,619,40.85,-106.97,2651.8,"CO","Elk River",30.9
"USC00253065",30,620,40.6558,-97.2208,467.9,"NE","FRIEND 3E",41.9
"USS0011R03S",30,621,34.94,-111.52,2286,"AZ","Mormon Mountain",37.9
"USS0020B25S",30,622,47.23,-120.29,1670.3,"WA","Trough",28.8
"USS0006K39S",29.9,623,39.62,-106.38,3139.4,"CO","Vail Mountain",33
"USC00417327",29.8,624,32.3664,-99.1925,494.1,"TX","PUTNAM",31.9
"USS0007E21S",29.8,625,44.8,-107.84,2859,"WY","Bald Mtn.",36.4
"USS0009G03S",29.8,626,42.87,-109.09,3078.5,"WY","Hobbs Park",30.4
"USS0012C22S",29.7,627,46.84,-112.51,2139.7,"MT","Nevada Ridge",31.9
"USS0016H02S",29.6,628,41.55,-116.01,2209.8,"NV","Jack Creek Upper",31
"USC00412011",29.6,629,27.7792,-97.5056,13.4,"TX","CORPUS CHRISTI NWS",24.6
"USS0018D20S",29.5,630,45.36,-118.47,1380.7,"OR","Bowman Springs",30.2
"USS0005M17S",29.5,631,37.61,-105.37,3246.1,"CO","Ute Creek",36.1
"USS0015A05S",29.4,632,48.98,-115.82,1295.4,"MT","Garver Creek",28.6
"USS0020H13S",29.4,633,41.24,-120.79,1886.7,"CA","Adin Mtn",33
"USS0009D21S",29.4,634,45.24,-109.46,1792.2,"MT","Burnt Mtn",38.7
"USS0006K04S",29.4,635,39.08,-106.61,3230.9,"CO","Independence Pass",31.6
"USS0007E34S",29.3,636,44.57,-107.3,2706.6,"WY","Dome Lake",28.7
"USS0009S11S",29.3,637,33.65,-109.31,2749.3,"AZ","Hannagan Meadows",39.6
"US1MTPK0007",29.3,638,45.6357,-110.4331,1677.9,"MT","LIVINGSTON 6.6 ESE",33.7
"USS0005J18S",29.2,639,40.21,-105.57,2621.3,"CO","Copeland Lake",29.1
"USS0020G02S",29.2,640,42.7,-120.8,2158,"OR","Summer Rim",29.4
"USS0006J20S",29.1,641,40.71,-106.01,2749.3,"CO","Rawah",30.3
"USS0010C15S",29,642,46.67,-110.33,2316.5,"MT","Daisy Peak",35.1
"USS0006K08S",28.9,643,39.38,-106.2,3474.7,"CO","Fremont Pass",31.3
"USS0006G02S",28.9,644,42.57,-106.09,2560.3,"WY","Reno Hill",35.1
"USS0006K16S",28.9,645,39.3,-106.11,3398.5,"CO","Buckskin Joe",31.9
"USS0016H07S",28.9,646,41.32,-116.34,2347,"NV","Toe Jam",33.6
"USC00141179",28.9,647,39.8775,-98.3036,503.2,"KS","BURR OAK 1N",38.8
"USS0007E18S",28.8,648,44.68,-107.58,2849.9,"WY","Bone Springs Div",29
"USS0007M14S",28.8,649,37.85,-107.73,3060.2,"CO","Mineral Creek",33.6
"USS0007E06S",28.7,650,44.16,-107.13,2889.5,"WY","Powder River Pass",24.8
"USS0010R04S",28.7,651,34.31,-110.75,2328.7,"AZ","Heber",35.7
"USS0019L44S",28.7,652,38.84,-119.89,2608.2,"CA","Horse Meadow",38.8
"USC00253175",28.7,653,40.5314,-97.5964,496.8,"NE","GENEVA",38.9
"USS0014A14S",28.6,654,48.31,-114.84,1534.7,"MT","Hand Creek",20
"USS0005K28S",28.6,655,39.44,-105.91,3230.9,"CO","Michigan Creek",30.4
"USS0011H03S",28.5,656,41.89,-111.57,1930,"UT","Tony Grove RS",29.8
"USS0011P13S",28.5,657,35.07,-111.84,2194.6,"AZ","Fry",39
"USS0009F28S",28.5,658,43.38,-109.88,2993.1,"WY","Gunsight Pass",28.6
"USC00253660",28.5,659,40.6472,-98.3836,590.7,"NE","HASTINGS 4N",35.5
"USS0009F24S",28.5,660,43.86,-109.32,2910.8,"WY","Kirwin",28.8
"USS0006K24S",28.4,661,39.49,-106.17,3215.6,"CO","Copper Mountain",28.9
"USS0009D16S",28.3,662,45.19,-109.35,2392.7,"MT","Cole Creek",36.9
"USS0011R06S",28.3,663,34.46,-111.41,2225,"AZ","Baker Butte",38.3
"USS0011J46S",28.3,664,40.61,-111.1,2523.7,"UT","Beaver Divide",32.4
"USS0017H07S",28.3,665,41.52,-117.63,1828.8,"NV","Lamance Creek",31.3
"USS0019L42S",28.2,666,38.4,-119.54,2838.6,"CA","Summit Meadow",33.6
"USS0009A01S",28.2,667,48.17,-109.65,1432.6,"MT","Rocky Boy",26.2
"USS0010D39S",28.1,668,45.5,-110.08,1930.9,"MT","East Boulder Mine",32.9
"USW00013966",28.1,669,33.9786,-98.4928,310,"TX","WICHITA FALLS MUNI AP",27.5
"USC00420819",28.1,670,40.8911,-111.8503,1508.8,"UT","BOUNTIFUL BENCH",32.3
"USC00045915",28.1,671,37.8792,-121.9303,661.4,"CA","MT DIABLO JUNCTION",32.7
"USS0007M31S",28.1,672,37.49,-107.51,3316.2,"CO","Vallecito",33.2
"USS0006K44S",28,673,39.6,-106.54,2889.5,"CO","Mccoy Park",32.3
"USS0007K13S",27.9,674,40,-107.24,2956.6,"CO","Trapper Lake",28.7
"USS0007M35S",27.9,675,37.66,-107.8,2718.8,"CO","Cascade #2",38.1
"USS0007K14S",27.8,676,39.09,-107.63,2999.2,"CO","Overland Res.",31.7
"USW00003957",27.8,677,37.2839,-98.5528,467.9,"KS","MEDICINE LODGE",32.5
"USC00395481",27.7,678,43.2358,-97.5714,406,"SD","MENNO",36.5
"USW00094949",27.7,679,40.6044,-98.4272,591.3,"NE","HASTINGS MUNI AP",35.2
"USS0010G08S",27.6,680,42.51,-110.91,2365.2,"WY","Salt River Summit",29.3
"USC00411920",27.6,681,29.9614,-98.8944,436.8,"TX","COMFORT 2",21.3
"USS0018E08S",27.5,682,44.76,-118.31,1649,"OR","Gold Center",28.8
"USS0014F17S",27.5,683,43.88,-114.67,2276.9,"ID","Galena",27.6
"USS0013E16S",27.4,684,44.85,-113.84,2603,"ID","Schwartz Lake",25.1
"US1WASJ0003",27.3,685,48.6079,-122.9466,51.5,"WA","ORCAS 0.7 NNW",24.2
"USW00014935",27.3,686,40.9611,-98.3136,560.8,"NE","GRAND ISLAND AP",39.7
"USS0006M23S",27.2,687,37.38,-106.55,3352.8,"CO","Lily Pond",36
"USW00012919",27.2,688,25.9156,-97.4186,7,"TX","BROWNSVILLE",22.9
"USS0010C09S",27.2,689,46.79,-110.68,1966,"MT","Deadman Creek",27.6
"USS0019L13S",27.1,690,38.07,-119.23,2878.8,"CA","Virginia Lakes Ridge",33.9
"USS0011R05S",27,691,34.75,-111.41,2325.6,"AZ","Happy Jack",33.3
"USS0011F11S",27,692,43.21,-111.69,2002.5,"ID","Sheep Mtn.",27.4
"USS0010D07S",26.9,693,45.01,-110.01,2240.3,"MT","Northeast Entrance",28.9
"USS0013M07S",26.9,694,37.4,-113.46,2536.5,"UT","Gardner Peak",36.7
"USS0016H05S",26.9,695,41.78,-116.03,2041.2,"NV","Laurel Draw",30.2
"USS0013M06S",26.9,696,37.5,-113.94,2061.4,"UT","Gutz Peak",40.9
"USS0007E39S",26.9,697,44.81,-107.41,2094,"WY","Tie Creek",31
"USC00342944",26.9,698,35.2164,-99.8628,627.9,"OK","ERICK",33.4
"US1COBO0202",26.8,699,40.1103,-105.4391,2609.1,"CO","WARD 4.6 NE",27.2
"USS0003E03S",26.8,700,44.11,-103.98,2100.1,"SD","Blind Park",25.3
"USS0009S01S",26.8,701,33.98,-109.5,2781.3,"AZ","Baldy",33.1
"USS0010C27S",26.8,702,46.48,-110.71,2316.5,"MT","Elk Peak",22.1
"US1SDMN0001",26.8,703,43.8624,-97.7907,406,"SD","FULTON 9.4 N",42.1
"USW00014941",26.7,704,41.9856,-97.4353,472.7,"NE","NORFOLK KARL STEFAN AP",27.1
"USS0013C36S",26.7,705,46.13,-113.31,2194.6,"MT","Peterson Meadows",22.6
"USS0008M08S",26.7,706,37.65,-108.01,2773.7,"CO","Scotch Creek",31.3
"US1TXTY0005",26.6,707,32.4096,-100.0846,635.8,"TX","MERKEL 5.8 SW",26.8
"USC00147542",26.6,708,39.7772,-98.7783,554.7,"KS","SMITH CTR",26.3
"USC00413508",26.6,709,28.3064,-98.1222,68.6,"TX","GEORGE WEST 2 SSW",18.6
"USS0005K27S",26.6,710,39.66,-105.59,3230.9,"CO","Echo Lake",24.6
"USC00417873",26.6,711,29.3283,-99.4653,290.5,"TX","SABINAL",22.8
"USS0007M29S",26.5,712,37.8,-107.92,3109,"CO","Lizard Head Pass",27.5
"USS0011C04S",26.5,713,46.35,-111.85,2097,"MT","Tizer Basin",28.4
"USS0019L17S",26.5,714,38.44,-119.37,2814.2,"CA","Lobdell Lake",31.2
"USS0021F22S",26.5,715,43.23,-121.81,1478.3,"OR","Chemult Alternate",28.8
"USS0009N05S",26.4,716,36.33,-109.06,2804.2,"AZ","Beaver Spring",31.2
"USS0010C03S",26.4,717,46.11,-110.47,1981.2,"MT","Porcupine",27.5
"USS0018G01S",26.3,718,42.75,-118.69,2130.6,"OR","Silvies",27.6
"USS0009S02S",26.3,719,33.92,-109.46,2804.2,"AZ","Maverick Fork",32.3
"USS0006J18S",26.3,720,40.23,-106.6,2816.4,"CO","Buffalo Park",27
"USS0013C13S",26.2,721,46.41,-113.43,2197.6,"MT","Black Pine",28.2
"USS0012C13S",26.2,722,46.44,-112.19,1975.1,"MT","Frohner Meadow",29.1
"USS0009E09S",26.2,723,44.3,-109.24,2670,"WY","Marquette",36.2
"USS0014F16S",26.2,724,43.71,-114.16,2267.7,"ID","Hyndman",28
"USW00013962",26.2,725,32.4106,-99.6822,545.6,"TX","ABILENE RGNL AP",23.2
"USC00480140",26.2,726,43.7728,-111.0339,1962.9,"WY","ALTA 1 NNW",27.4
"USS0011E03S",26.1,727,44.59,-111.82,2255.5,"MT","Lakeview Ridge",29.6
"USS0003E05S",26.1,728,44.21,-103.79,1868.4,"SD","North Rapid Creek",25.3
"USS0006N14S",26.1,729,36.72,-106.26,3048,"NM","Hopewell",32.9
"USS0005J11S",26.1,730,40.58,-105.63,2859,"CO","Hourglass Lake",25.7
"USS0005J04S",26,731,40.4,-105.85,2752.3,"CO","Phantom Valley",23.9
"USS0006K45S",26,732,39.6,-106.51,2590.8,"CO","Beaver Ck Village",29.2
"USS0005L12S",25.9,733,38.29,-105.85,3267.5,"CO","Hayden Pass",31.4
"USS0006K12S",25.9,734,39.8,-106.03,2724.9,"CO","Middle Fork Camp",26.4
"USS0013D10S",25.7,735,45.17,-113.5,2316.5,"MT","Bloody Dick",20.6
"USS0010K06S",25.6,736,39.68,-110.43,2662.7,"UT","Timberline",31.1
"USS0007E32S",25.6,737,44.58,-107.2,2435.4,"WY","Big Goose",29
"USS0007J04S",25.6,738,40.17,-107.06,2773.7,"CO","Crosho",29.6
"USS0013E23S",25.5,739,44.99,-113.44,2468.9,"MT","Lemhi Ridge",24.2
"USS0013C31S",25.5,740,46.87,-113.28,1905,"MT","N Fk Elk Creek",27.8
"USS0017H02S",25.5,741,41.75,-117.53,2107.7,"NV","Buckskin Lower",27.3
"USC00250050",25.5,742,42.5522,-99.8556,765,"NE","AINSWORTH",37.3
"USS0005N19S",25.4,743,36.47,-105.19,3102.9,"NM","Tolby",31.3
"USS0005N18S",25.4,744,36.19,-105.56,2987,"NM","Gallegos Peak",26.7
"USS0009E08S",25.4,745,44.8,-109.66,2331.7,"WY","Wolverine",27.1
"USC00252560",25.3,746,40.2764,-99.7836,646.2,"NE","EDISON",28.7
"USS0012E07S",25.3,747,44.79,-112.06,2377.4,"MT","Divide",27.3
"USS0008G03S",25.2,748,42.57,-108.84,2755.4,"WY","South Pass",23.1
"USS0019L40S",25.2,749,38.67,-119.61,2532.9,"CA","Monitor Pass",31.2
"USS0012B16S",25.1,750,47.06,-112.6,1585,"MT","Copper Bottom",24.2
"USS0007J03S",25.1,751,40.06,-107.01,2767.6,"CO","Bear River",27.7
"USS0006G01S",25.1,752,42.73,-106.32,2407.9,"WY","Casper Mtn.",27
"USC00057317",25,753,37.9136,-104.9483,2176.6,"CO","RYE 1SW",25
"USS0011E24S",25,754,44.79,-111.71,2438.4,"MT","Tepee Creek",25.9
"USS0006L05S",25,755,38.7,-106.37,3212.6,"CO","Saint Elmo",31.8
"USS0006L13S",24.8,756,38.29,-106.37,3514.3,"CO","Sargents Mesa",28.3
"USC00258133",24.7,757,41.4581,-100.5986,921.1,"NE","STAPLETON 5W",35.1
"USS0010G13S",24.6,758,42.49,-110.53,2456.7,"WY","Snider Basin",21.1
"USC00143527",24.6,759,38.8586,-99.3358,612.6,"KS","HAYS 1 S",31
"USS0021F12S",24.5,760,42.96,-121.18,1749.6,"OR","Silver Creek",26.7
"USS0016J01S",24.5,761,40.36,-116.86,2255.5,"NV","Lewis Peak",31.2
"USS0007H03S",24.4,762,41.11,-107.17,2484.1,"WY","Sandstone RS",26.4
"USS0006E03S",24.4,763,44.26,-106.98,2548.1,"WY","Hansen Sawmill",25
"USS0010F15S",24.4,764,43.25,-110.02,2359.2,"WY","Kendall R.S.",22.2
"USS0006L03S",24.3,765,38.49,-106.34,3279.6,"CO","Porphyry Creek",30.3
"USS0006K30S",24.3,766,39.32,-106.61,2926.1,"CO","Kiln",26.7
"USS0012D09S",24.3,767,45.8,-112.52,2188.5,"MT","Basin Creek",25
"US1SDPN0002",24.3,768,44.0886,-103.2997,1058.9,"SD","RAPID CITY 3.4 WNW",39.1
"USS0006H19S",24.2,769,41.33,-106.5,2572.5,"WY","South Brush Creek",21.5
"USS0013C39S",24.2,770,46.18,-113.85,1761.7,"MT","Daly Creek",20.9
"USS0005M07S",24.1,771,37.33,-105.07,3048,"CO","Apishapa",23.2
"USS0007M30S",24.1,772,37.99,-107.2,3486.9,"CO","Slumgullion",31.7
"USS0014E04S",24.1,773,44.84,-114.27,2316.5,"ID","Morgan Creek",20
"USC00395638",23.9,774,43.1122,-100.6111,856.5,"SD","MISSION 14 S",32.1
"USS0012P02S",23.9,775,35.14,-112.15,2188.5,"AZ","White Horse Lake",30.2
"USS0006K14S",23.8,776,39.72,-106.16,2865.1,"CO","Summit Ranch",25.5
"USW00014936",23.8,777,44.3981,-98.2231,390.1,"SD","HURON RGNL AP",37.4
"USS0009G09S",23.7,778,42.65,-109.26,2767.6,"WY","Big Sandy Opening",23.5
"USS0015F09S",23.6,779,43.27,-115.35,1740.4,"ID","Camas Creek Divide",24.9
"USS0005N04S",23.6,780,36.13,-105.53,2621.3,"NM","Tres Ritos",23.4
"USS0006N16S",23.4,781,36.03,-106.81,2836.5,"NM","Vacas Locas",28.1
"USS0008T01S",23.4,782,32.92,-108.15,2548.1,"NM","Signal Peak",26.4
"USC00410394",23.4,783,33.1525,-100.2333,509,"TX","ASPERMONT",29.8
"USW00014914",23.4,784,46.9253,-96.8111,274.3,"ND","FARGO HECTOR INTL AP",31.3
"USS0006P10S",23.2,785,36,-106.83,2621.3,"NM","Senorita Divide #2",24.8
"USS0007F02S",23.2,786,43.63,-107.18,2365.2,"WY","Middle Powder",31.8
"USS0018E09S",23.1,787,44.66,-118.43,1569.7,"OR","Tipton",24.6
"USS0006J06S",23,788,40.08,-106.67,2706.6,"CO","Lynx Pass",25.1
"USS0019A02S",22.9,789,48.66,-119.84,1359.4,"WA","Salmon Meadows",21.9
"USS0014F19S",22.9,790,43.77,-114.42,1962.9,"ID","Chocolate Gulch",25.6
"USS0005N16S",22.9,791,36.99,-105.26,3230.9,"NM","North Costilla",25.8
"USC00056205",22.9,792,38.0264,-107.6725,2352.4,"CO","OURAY #2",24.5
"USW00003103",22.8,793,35.1442,-111.6664,2134.5,"AZ","FLAGSTAFF PULLIAM AP",26.1
"USW00023007",22.7,794,34.4272,-100.2831,594.7,"TX","CHILDRESS MUNI AP",22.4
"USS0015H14S",22.7,795,41.87,-115.25,2539,"NV","Pole Creek R.S.",27.3
"USC00146637",22.7,796,39.0667,-100.2389,814.4,"KS","QUINTER",26.7
"USS0012L20S",22.7,797,38.07,-112.17,2971.5,"UT","Jones Corral",27.9
"USW00013985",22.6,798,37.7608,-99.9683,789.4,"KS","DODGE CITY",22.9
"USC00140365",22.6,799,37.1942,-99.7633,600.5,"KS","ASHLAND",28.4
"USS0006K40S",22.6,800,39.09,-106.54,3230.9,"CO","Brumley",25.4
"USW00024023",22.4,801,41.1214,-100.6694,846.7,"NE","NORTH PLATTE RGNL AP",28.9
"USC00412121",22.4,802,33.6517,-101.245,917.4,"TX","CROSBYTON",20.1
"USS0006P01S",22.4,803,35.92,-106.39,2895.6,"NM","Quemazon",24.1
"USS0006N04S",22.3,804,36.51,-106.32,2834.6,"NM","Bateman",28.8
"USW00014916",22.2,805,47.9428,-97.1839,256.6,"ND","GRAND FORKS INTL AP",28.1
"USC00418818",22.2,806,33.1714,-101.7981,951,"TX","TAHOKA",18.3
"USW00023034",22.1,807,31.3711,-100.4922,576.1,"TX","SAN ANGELO",17.7
"USS0007S03S",22,808,33.01,-107.87,2816.4,"NM","Mcknight Cabin",26.4
"USS0015H03S",22,809,41.74,-115.47,2164.1,"NV","Seventysix Creek",27.1
"US1CACC0001",21.7,810,37.9898,-122.1085,76.8,"CA","MARTINEZ 0.8 SSE",26.3
"USW00024020",21.7,811,40.5233,-101.0344,928.1,"NE","HAYES CENTER 1NW",27.8
"USC00394516",21.7,812,43.9025,-99.8583,512.4,"SD","KENNEBEC",35.8
"USS0013C38S",21.7,813,46.88,-113.32,1426.5,"MT","Lubrecht Flume",22.5
"USC00417944",21.6,814,31.3708,-100.4944,576.1,"TX","SAN ANGELO WFO",19.7
"USS0005M16S",21.5,815,37.85,-105.44,2941,"CO","Medano Pass",23.6
"USC00415821",21.4,816,34.7261,-100.5372,637,"TX","MEMPHIS",22.5
"USS0005G05S",21.4,817,42.28,-105.58,2407.9,"WY","Windy Peak",22.2
"USS0009F25S",21.3,818,43.28,-109.45,2935.2,"WY","Cold Springs",20.5
"USC00020678",21.2,819,35.2303,-111.8222,2179.9,"AZ","BELLEMONT WFO",24.1
"USS0005G04S",21.2,820,42.44,-105.86,2552.7,"WY","Laprele Creek",24.3
"USW00022010",21.1,821,29.3783,-100.9269,304.5,"TX","DEL RIO INTL AP",14.8
"USW00014929",21,822,45.4558,-98.4131,396.8,"SD","ABERDEEN",30.4
"USW00024025",21,823,44.3814,-100.2856,531,"SD","PIERRE RGNL AP",31
"USS0005M08S",21,824,37.35,-105.23,3310.1,"CO","Trinchera",23.5
"USC00397277",21,825,45.4528,-99.3358,559.3,"SD","ROSCOE",29.5
"US1COBO0072",21,826,40.0242,-105.2689,1638.9,"CO","BOULDER 1.3 NW",20.7
"USS0010F17S",20.9,827,43.13,-110.2,2417.1,"WY","East Rim Divide",21.1
"USS0021G03S",20.9,828,42.69,-121.43,1533.1,"OR","Taylor Butte",24.3
"USC00325638",20.7,829,47.8214,-101.2922,643.1,"ND","MAX",24.2
"USS0007F06S",20.7,830,43.47,-107.24,2606,"WY","Grave Springs",25.5
"USS0007H06S",20.7,831,41.4,-107.26,2392.7,"WY","Sage Creek Basin",23.3
"USS0019D03S",20.7,832,45.11,-119.5,1569.7,"OR","Madison Butte",23.3
"USC00254455",20.6,833,41.2097,-101.6706,1011.3,"NE","KINGSLEY DAM",24.4
"USW00024011",20.5,834,46.7708,-100.7603,505.4,"ND","BISMARCK",29.6
"USS0009S06S",20.5,835,33.69,-109.22,2435.4,"AZ","Beaver Head",25.9
"USS0009S07S",20.4,836,33.8,-109.15,2560.3,"AZ","Coronado Trail",21.3
"USS0013D26S",20.1,837,45.88,-113.33,1959.9,"MT","Calvert Creek",19.2
"USS0006K06S",20.1,838,39.3,-106.61,2651.8,"CO","Nast Lake",23.7
"USS0012P01S",20.1,839,35.26,-112.06,2164.1,"AZ","Chalender",29.4
"USC00325002",20,840,48.6272,-101.3764,490.7,"ND","LANSFORD",23.5
"USS0006L02S",20,841,38.82,-106.59,2926.1,"CO","Park Cone",23.1
"USW00026615",20,842,60.785,-161.8292,31.1,"AK","BETHEL AP",24.2
"USS0009F21S",19.9,843,43.11,-109.95,2542,"WY","New Fork Lake",23.1
"USW00023047",19.8,844,35.2333,-101.7089,1093.3,"TX","AMARILLO",25.9
"US1COEP0055",19.8,845,39.1125,-104.859,2214.1,"CO","MONUMENT 2.9 N",21.8
"USC00100803",19.7,846,42.3353,-111.385,1817.8,"ID","BERN",22.2
"US1MTDL0001",19.7,847,46.1661,-113.0853,1768.1,"MT","ANACONDA 7.4 NW",18.5
"USS0006N03S",19.7,848,36.96,-106.66,2560.3,"NM","Chamita",24.2
"USC00048587",19.7,849,39.5861,-122.5342,243.8,"CA","STONY GORGE RSVR",32
"USS0008P03S",19.6,850,35.23,-108.27,2578.6,"NM","Rice Park",21.4
"USW00026510",19.4,851,62.9575,-155.6103,101.5,"AK","MCGRATH AP",22.9
"USS0006K43S",19.4,852,39.03,-106.08,3157.7,"CO","Rough And Tumble",21.2
"USC00418232",19.4,853,33.6878,-101.9853,1011.3,"TX","SHALLOWATER",20.6
"USC00047851",19.4,854,35.3056,-120.6619,93.9,"CA","SAN LUIS OBISPO POLY",29.1
"USC00058793",19.3,855,37.3822,-102.2986,1212.5,"CO","WALSH 1 W",20
"USS0011P02S",19.2,856,35.27,-111.74,2240.3,"AZ","Fort Valley",20
"USS0017C06S",19.2,857,46.24,-117.39,1219.2,"WA","Sourdough Gulch",18.4
"US1TXLK0007",19.1,858,33.5172,-101.9681,1003.1,"TX","LUBBOCK 6.7 SW",22.8
"USW00023065",19,859,39.3669,-101.7,1112.8,"KS","GOODLAND",22.8
"USC00417079",18.8,860,34.1892,-101.7022,1027.2,"TX","PLAINVIEW",18.1
"USC00148287",18.8,861,37.5983,-101.2908,943.1,"KS","ULYSSES 3NE",16.1
"USC00417081",18.8,862,34.1981,-101.7461,1051.6,"TX","PLAINVIEW WTR PRODUCTN",16.8
"USC00414967",18.8,863,33.0642,-101.0489,694.9,"TX","LAKE ALAN HENRY",21.4
"USC00411000",18.7,864,35.5303,-102.2564,972.6,"TX","BOYS RCH",27.5
"USS0008F01S",18.7,865,43.66,-109.01,2735.6,"WY","Owl Creek",24.7
"USC00053652",18.7,866,38.6867,-105.3925,2717.3,"CO","GUFFEY 9SE",18.8
"USC00395381",18.6,867,45.8383,-101.2767,664.2,"SD","MC INTOSH 6 SE",29.6
"USS0005J12S",18.6,868,40.23,-105.92,2657.9,"CO","Stillwater Creek",18
"USW00023232",18.6,869,38.5069,-121.495,4.6,"CA","SACRAMENTO EXECUTIVE AP",24.9
"USC00142980",18.5,870,37.9931,-100.8122,880.9,"KS","GARDEN CITY EXP STN",17.5
"USS0018F01S",18.4,871,44.01,-118.84,1612.4,"OR","Rock Springs",24.9
"USW00024225",18.4,872,42.3811,-122.8722,395.3,"OR","MEDFORD ROGUE VLY AP",20.4
"USW00023042",18.4,873,33.6542,-101.8136,993.3,"TX","LUBBOCK",24.4
"USC00411128",18.3,874,33.1908,-102.2681,1005.8,"TX","BROWNFIELD #2",17
"USW00026617",18.2,875,64.5111,-165.44,4,"AK","NOME MUNI AP",26.7
"USC00252645",18.2,876,42.0628,-102.3172,1191.5,"NE","ELLSWORTH 2W",19.7
"USW00026451",18.2,877,61.1689,-150.0278,36.6,"AK","ANCHORAGE INTL AP",14.6
"USS0007S04S",18.2,878,33.36,-107.83,2590.8,"NM","Lookout Mountain",14.9
"USW00023234",18.1,879,37.6197,-122.3647,2.4,"CA","SAN FRANCISCO INTL AP",23.5
"US1COLR0259",17.9,880,40.5857,-105.1317,1560,"CO","FCL 2.5 W",18.5
"USC00413972",17.9,881,34.3697,-102.1175,1116.5,"TX","HART",17.6
"USC00415183",17.7,882,33.55,-102.3758,1071.1,"TX","LEVELLAND",13.1
"USC00291963",17.7,883,34.5989,-103.2161,1351.8,"NM","CLOVIS 13 N",24.8
"USC00416074",17.6,884,33.7186,-102.7586,1147.9,"TX","MORTON",17.3
"USC00244715",17.5,885,45.8728,-104.1583,940.6,"MT","KNOBS 4 SW",21.4
"USC00244558",17.5,886,48.3042,-114.2636,901.3,"MT","KALISPELL GLACIER AP",16.5
"US1WYSH0014",17.5,887,44.8122,-106.9763,1175.9,"WY","SHERIDAN 1.7 NW",19.6
"US1COLR0509",17.2,888,40.3926,-105.1587,1562.1,"CO","LOV 4.0 W",18.2
"USS0008S01S",17.2,889,33.74,-108.95,2438.4,"NM","Frisco Divide",19.2
"US1WYLM0036",17.2,890,41.1449,-104.7547,1825.1,"WY","CHEYENNE 2.0 E",18.6
"US1CASM0006",17.1,891,37.5488,-122.2587,2.1,"CA","FOSTER CITY 1.3 SW",20.6
"USW00022521",17,892,21.3239,-157.9294,2.1,"HI","HONOLULU INTL AP",16.7
"USC00481676",16.9,893,41.1517,-104.8061,1865.1,"WY","CHEYENNE WFO",18.4
"USW00024157",16.9,894,47.6217,-117.5281,717.2,"WA","SPOKANE INTL AP",15.5
"USW00024028",16.8,895,41.8706,-103.5931,1202.4,"NE","SCOTTSBLUFF HEILIG AP",19.6
"USS0006L06S",16.8,896,38.16,-106.6,3054.1,"CO","Cochetopa Pass",19.6
"US1TXMDL006",16.7,897,32.0063,-102.1463,868.4,"TX","MIDLAND 3.0 WSW",17.8
"USW00023051",16.7,898,36.4486,-103.1539,1511.8,"NM","CLAYTON MUNI AIR PK",13.5
"USC00459376",16.5,899,48.4742,-120.1886,533.1,"WA","WINTHROP 1 WSW",12.2
"USC00241938",16.5,900,45.6444,-109.2675,1097.9,"MT","COLUMBUS",22.6
"USC00058781",16.4,901,37.6303,-104.7956,1920.2,"CO","WALSENBURG 1 NW",16.2
"USC00418964",16.4,902,36.3786,-103.0244,1433.8,"TX","TEXLINE",17.5
"USC00054546",16.3,903,37.115,-103.2986,1602.3,"CO","KIM 10SSE",16
"USW00024029",16.3,904,44.7694,-106.9689,1202.4,"WY","SHERIDAN CO AP",18.1
"USW00024018",16.2,905,41.1519,-104.8061,1867.8,"WY","CHEYENNE",18.1
"USC00055236",16.2,906,40.435,-105.085,1548.4,"CO","LOVELAND 2N",15.1
"USW00024033",16,907,45.8069,-108.5422,1091.5,"MT","BILLINGS LOGAN INTL AP",19.1
"USW00023254",16,908,37.9917,-122.055,5.5,"CA","CONCORD BUCHANAN FLD",20.2
"USS0021G04S",15.9,909,42.21,-121.13,1490.5,"OR","Gerber Reservoir",18
"USW00094055",15.7,910,46.3583,-104.25,905.6,"MT","BAKER MUNI AP",21.4
"USW00024127",15.7,911,40.7781,-111.9694,1287.8,"UT","SALT LAKE CITY INTL AP",20.1
"USW00093037",15.5,912,38.81,-104.6883,1884,"CO","COLORADO SPRINGS MUNI AP",11.8
"USW00023062",15.5,913,39.7633,-104.8694,1611.2,"CO","DENVER-STAPLETON",12.7
"USW00094008",15.5,914,48.2138,-106.6213,696.5,"MT","GLASGOW INTL AP",17.8
"US1AZCH0017",15.5,915,31.549,-110.2776,1391.7,"AZ","SIERRA VISTA 1.3 E",16.7
"US1CASD0012",15.3,916,32.9956,-117.0044,367.6,"CA","POWAY 3.2NE",25.5
"USS0009S04S",15.3,917,33.9,-109.16,2590.8,"AZ","Nutrioso",16.6
"USS0010J06S",15.2,918,40.98,-110.85,2438.4,"UT","Burts Miller Ranch",14.6
"USW00023190",15,919,34.4258,-119.8425,2.7,"CA","SANTA BARBARA MUNI AP",24.1
"USC00488858",15,920,43.8111,-107.3653,1426.5,"WY","TENSLEEP 16SSE",18.5
"USC00040029",14.9,921,41.1936,-120.9447,1278.6,"CA","ADIN RS",18.9
"US1COLR0662",14.8,922,40.3922,-105.0539,1513,"CO","LOVELAND 2.0 SSE",12.7
"USC00051743",14.6,923,39.2367,-107.9797,1831.5,"CO","COLLBRAN 1WSW",14.1
"USW00003017",14.3,924,39.8328,-104.6575,1650.2,"CO","DENVER INTL AP",15.5
"USW00024153",14.2,925,46.9208,-114.0925,972.9,"MT","MISSOULA INTL AP",15.2
"US1IDBV0006",14.2,926,43.6176,-111.884,1487.4,"ID","IDAHO FALLS 11.7 NE",14.7
"US1UTML0001",14.1,927,39.3723,-112.3339,1565.1,"UT","OAK CITY 0.3 SSE",17.4
"USC00044997",14,928,37.6922,-121.7692,146.3,"CA","LIVERMORE",17.6
"USW00023023",13.8,929,31.9433,-102.1889,874.2,"TX","MIDLAND ODESSA",14.3
"US1NMGR0027",13.8,930,33.023,-108.5441,1427.1,"NM","CLIFF 5.7 NE",14.5
"US1COBO0143",13.7,931,40.2001,-105.1087,1538.9,"CO","LONGMONT 2.1 N",16.4
"USW00024037",13.6,932,46.4267,-105.8825,799.8,"MT","MILES CITY F WILEY FLD",14.6
"USW00023237",13.5,933,37.8892,-121.2258,7.9,"CA","STOCKTON METRO AP",17.1
"US1CALA0001",13.5,934,34.1689,-118.2947,155.8,"CA","GLENDALE 2.4 WSW",25.3
"USW00026411",13.4,935,64.8039,-147.8761,131.7,"AK","FAIRBANKS INTL AP",16.4
"USW00024149",13.3,936,46.3747,-117.0156,437.7,"ID","LEWISTON NEZ PERCE CO AP",13.4
"USW00094012",13.3,937,48.5428,-109.7633,787.9,"MT","HAVRE CITY CO AP",12.4
"US1CARV0008",13.2,938,33.7307,-117.4276,427.9,"CA","CORONA 12.8 SE",22.5
"USW00024089",13.2,939,42.8975,-106.4636,1627,"WY","CASPER NATRONA CO AP",14.5
"US1AZPM0111",13.2,940,32.139,-110.7674,886.1,"AZ","TUCSON 10.5 ESE",16.6
"USC00051294",13.1,941,38.46,-105.2256,1639.2,"CO","CANON CITY",12.7
"USW00024155",13.1,942,45.6906,-118.8528,461.8,"OR","PENDLETON",12.4
"USC00054254",13,943,37.0856,-107.5333,1995.8,"CO","IGNACIO 6ESE",14.4
"USW00093026",12.8,944,31.4583,-109.6061,1251.2,"AZ","DOUGLAS BISBEE INL AP",16.3
"USW00023293",12.7,945,37.3592,-121.9239,15.5,"CA","SAN JOSE",16.1
"USC00057033",12.6,946,39.5572,-107.7261,1667,"CO","RIFLE 3ENE",14.4
"USC00051964",12.4,947,37.9806,-105.6897,2439.6,"CO","CRESTONE 2 SE",12.1
"USW00024131",12.3,948,43.5667,-116.2406,857.7,"ID","BOISE AIR TERMINAL",14.6
"USW00023233",12.1,949,36.6636,-121.6081,22.6,"CA","SALINAS MUNICIPAL AP",14.3
"USW00093134",12,950,34.0511,-118.2353,70.1,"CA","LOS ANGELES DWTN USC CAMPUS",21.6
"USC00422592",12,951,37.7686,-111.5978,1770.9,"UT","ESCALANTE",12.9
"USW00026616",12,952,66.8667,-162.6333,9.1,"AK","KOTZEBUE RALPH WEIN AP",13.8
"USW00024156",12,953,42.9203,-112.5711,1364.9,"ID","POCATELLO RGNL AP",12.4
"USW00023273",11.8,954,34.8994,-120.4486,73.8,"CA","SANTA MARIA PUBLIC AP",17.1
"USW00023009",11.5,955,33.3075,-104.5083,1112.2,"NM","ROSWELL IND AIR PK",11.3
"USW00023129",11.4,956,33.8117,-118.1464,9.4,"CA","LONG BEACH DAUGHERTY FLD",21.5
"USW00023160",11.3,957,32.1314,-110.9553,776.9,"AZ","TUCSON INTL AP",13.6
"USW00093058",11.3,958,38.29,-104.4983,1438.7,"CO","PUEBLO MEM AP",13.1
"USC00262570",11.2,959,40.8603,-115.7425,1595.6,"NV","ELKO NWS OFFICE",15.8
"USW00093209",11.1,960,35.6697,-120.6283,246.9,"CA","PASO ROBLES MUNI AP",17.3
"USC00042805",11,961,33.6861,-117.3458,386.5,"CA","ELSINORE",19
"USC00487105",11,962,42.4717,-106.8528,1805.3,"WY","PATHFINDER DAM",13.2
"USW00024137",10.8,963,48.6033,-112.3753,1169.8,"MT","CUT BANK MUNI AP",11
"US1NVWH0011",10.8,964,39.5084,-119.8442,1393.9,"NV","RENO 2.4 SSW",14.5
"USW00094185",10.6,965,43.595,-118.9564,1261.9,"OR","BURNS MUNI AP",14.7
"US1NVWH0002",10.6,966,39.5573,-119.8144,1494.1,"NV","RENO 1.4 NNE",14.4
"USW00023174",10.6,967,33.9381,-118.3889,29.6,"CA","LOS ANGELES INTL AP",18.7
"USW00024121",10.6,968,40.8289,-115.7886,1533.1,"NV","ELKO RGNL AP",14.8
"USW00093193",10.5,969,36.78,-119.7194,101.5,"CA","FRESNO YOSEMITE INTL AP",12.4
"USC00487760",10.5,970,43.0306,-108.3744,1510.3,"WY","RIVERTON",11.2
"US1NMBR0034",10,971,35.1278,-106.5437,1676.1,"NM","ALBUQUERQUE 4.6 E",11.9
"USW00003170",9.9,972,39.6014,-116.0056,1809.3,"NV","EUREKA AIRPORT",13.7
"USW00023188",9.6,973,32.7336,-117.1831,4.6,"CA","SAN DIEGO LINDBERGH FLD",15.3
"USW00024138",9.6,974,45.2575,-112.5545,1585,"MT","DILLON AP",8.8
"USC00029464",9.6,975,33.7775,-112.5231,513,"AZ","WITTMANN 1SE",14.7
"US1NMBR0148",9.6,976,35.0944,-106.6123,1572.8,"NM","ALBUQUERQUE 1.7 SSE",11
"USC00290231",9.3,977,35.0217,-106.6939,1510.3,"NM","ALBUQUERQUE VALLEY",8.5
"USC00297477",9.2,978,35.2836,-106.6194,1594.1,"NM","RIO RANCHO #1",10.2
"USW00023066",9.2,979,39.1342,-108.54,1480.7,"CO","GRAND JUNCTION WALKER FLD",8.6
"USW00024128",9,980,40.9017,-117.8081,1309.4,"NV","WINNEMUCCA MUNI AP",10.2
"US1NMDA0116",9,981,32.2718,-106.7668,1178.1,"NM","MESILLA 2.3 E",8.4
"USC00052184",8.8,982,37.6911,-106.3078,2391.2,"CO","DEL NORTE 3ENE",12.2
"USW00023044",8.4,983,31.8111,-106.3758,1194.2,"TX","EL PASO INTL AP",8.1
"USW00024243",8.3,984,46.5683,-120.5428,324.3,"WA","YAKIMA AIR TERMINAL",8.6
"USC00483396",8.2,985,41.9861,-110.0611,1976.6,"WY","FONTENELLE DAM",8.5
"USC00483031",8.1,986,44.4972,-108.3906,1355.8,"WY","EMBLEM",11.4
"USW00023185",8.1,987,39.4839,-119.7711,1344.2,"NV","RENO TAHOE INTL AP",11.2
"USW00023050",8.1,988,35.0419,-106.6156,1618.5,"NM","ALBUQUERQUE INTL AP",8.8
"USC00027187",8,989,32.8117,-111.6314,455.7,"AZ","ROBSON RCH",11.3
"USC00297481",7.9,990,35.2522,-106.6347,1612.4,"NM","RIO RANCHO #2",8.3
"USW00023194",7.5,991,35.0281,-110.7208,1489.3,"AZ","WINSLOW MUNI AP",7
"USW00023183",6.9,992,33.4278,-112.0039,337.4,"AZ","PHOENIX SKY HARBOR INTL AP",5.9
"USW00023155",6,993,35.4344,-119.0542,149,"CA","BAKERSFIELD AP",9.1
"USW00023179",4.6,994,34.7675,-114.6189,271.3,"CA","NEEDLES AP",8.5
"USW00023169",4,995,36.0719,-115.1633,649.5,"NV","LAS VEGAS MCCARRAN AP",6.9
